stop_id,stop_code,stop_name,stop_lat,stop_lon,location_type
3609994,BORGA11,Borgarbyggð/Dalabyggð,64.883226973752,-21.5157463523532,0
10000802,HAMRAB2,Hamraborg,64.111089000000007,-21.908351,0
10000804,KÓPAVOG,Kópavogsbraut / Sunnuhlíð,64.109082000000001,-21.909596000000001,0
10000805,KÓPAVO1,Kópavogsbraut / Urðarbraut,64.109198000000006,-21.917279000000001,0
10000806,KÓPAVO2,Kársnesskóli,64.109191999999993,-21.924001000000001,0
10000807,KÓPAVO3,Kópavogsbraut / Kópavör,64.109298999999993,-21.930667,0
10000808,KÁRSNE1,Kópavogsbraut / Borgarholtsbraut,64.111243999999999,-21.935373999999999,0
10000809,KÁRSNE3,Kársnesbraut / Vesturvör,64.113603999999995,-21.929884000000001,0
10000810,KÁRSNE2,Kársnesbraut / Litlavör,64.113681999999997,-21.923297999999999,0
10000811,URÐABRA,Hlíðarhjalli / Bakkahjalli,64.107373999999993,-21.874089999999999,0
10000812,KÁRSNES,Kársnesbraut / Sæbólsbraut,64.114525999999998,-21.903531000000001,0
10000814,KRINGL4,Skeljabrekka,64.114422000000005,-21.899865999999999,0
10000815,SMIÐJU1,Smiðjuvegur / Gul gata,64.113327999999996,-21.84835,0
10000817,VATNSE1,Vatnsendavegur / Kóravegur,64.085384000000005,-21.819621999999999,0
10000818,SMIÐJUV,Smiðjuvegur / Gul gata,64.113248999999996,-21.848192000000001,0
10000819,ÁLFHÓL1,Álfhólsvegur / Túnbrekka,64.111757999999995,-21.884426999999999,0
10000820,DIGRAN4,Menntaskólinn í Kópavogi / MK,64.110166000000007,-21.895859999999999,0
10000821,DIGRAN1,Menntaskólinn í Kópavogi / MK,64.110274000000004,-21.895669000000002,0
10000822,DIGRAN2,Kópavogsskóli,64.110378999999995,-21.900321999999999,0
10000823,VATNSE4,Vatnsendavegur / Kóravegur,64.085310000000007,-21.818631,0
10000824,SKÁLAH2,Vatnsendavegur / Elliðahvammsvegur,64.087018,-21.812823999999999,0
10000825,FÍFUHV6,Fífuhvammsvegur / Arnarsmári,64.099644999999995,-21.904513000000001,0
10000826,FÍFUHV7,Fífuhvammsvegur / Arnarsmári,64.099710999999999,-21.903924,0
10000827,ARNARN5,Arnarnesvegur / Bæjarbraut,64.098690000000005,-21.905116,0
10000828,ÁLFHÓLS,Álfhólsvegur / Túnbrekka,64.111829999999998,-21.884425,0
10000830,SALAVE3,Vatnsendavegur / Akurhvarf,64.087173000000007,-21.812628,0
10000831,FÍFUHV3,Lindir,64.098579999999998,-21.870173999999999,0
10000832,SMÐJUVE,Smiðjuvegur / Grá gata,64.110889,-21.85211,0
10000834,ARNARN3,Arnarnesvegur / Salavegur,64.089592999999994,-21.845248000000002,0
10000835,DALVEG2,Dalvegur / Hlíðarhjalli,64.106454999999997,-21.855698,0
10000836,DALVEG5,Dalvegur / Hlíðarhjalli,64.106594999999999,-21.855848999999999,0
10000837,HLÍÐARH,Hlíðarhjalli / Fífuhjalli,64.107757000000007,-21.860164999999999,0
10000838,HLÍÐAR7,Hjallakirkja,64.109553000000005,-21.866266,0
10000839,SMIÐJU2,Smiðjuvegur / Grá gata,64.110900999999998,-21.852318,0
10000842,NÝBÝLAV,Nýbýlavegur / Laufbrekka,64.114069000000001,-21.887445,0
10000844,NÝBÝLA1,Nýbýlavegur / Hjallabrekka,64.113929999999996,-21.87987,0
10000846,NÝBÝLA2,Nýbýlavegur / Lundarbrekka,64.113677999999993,-21.872197,0
10000847,NÝBÝLA9,Nýbýlavegur / Lundarbrekka,64.113842000000005,-21.872485999999999,0
10000848,NÝBÝLA8,Nýbýlavegur / Ástún,64.113735000000005,-21.868226,0
10000849,NÝBÝLA3,Nýbýlavegur / Þverbrekka,64.113461000000001,-21.866342,0
10000850,NÝBÝLA4,Nýbýlavegur / Álfabrekka,64.112943999999999,-21.861297,0
10000851,NÝBÝLA7,Nýbýlavegur / Álfabrekka,64.113208999999998,-21.861170000000001,0
10000852,NÝBÝLA5,Nýbýlavegur / Efstihjalli,64.110757000000007,-21.856081,0
10000853,NÝBÝLA6,Nýbýlavegur / Skemmuvegur,64.110812999999993,-21.855532,0
10000854,HAFNARF,Sunnuhlíð,64.107073999999997,-21.905615000000001,0
10000856,HAFNAR6,Hlíðarhvammur,64.106196999999995,-21.903763999999999,0
10000857,DIGRAN3,Digranesvegur / Brattabrekka,64.109999999999999,-21.888501000000002,0
10000858,DIGRANE,Digranesvegur / Brattabrekka,64.110157999999998,-21.888489,0
10000859,DIGRAN5,Kópavogsskóli,64.110292000000001,-21.899697,0
10000860,VATNSE2,Vatnsendavegur / Álfkonuhvarf,64.090785999999994,-21.808157999999999,0
10000862,DALVEG4,Dalvegur,64.105857999999998,-21.872156,0
10000863,DALVEG1,Dalvegur,64.105812,-21.871791999999999,0
10000864,DALVEG3,Smáratorg,64.10427,-21.879688999999999,0
10000865,DALVEGU,Smáratorg,64.104185000000001,-21.879448,0
10000866,DALSMÁ5,Dalsmári / Lækjasmári,64.104574,-21.883901000000002,0
10000867,DALSMÁ2,Dalsmári / Lautasmári,64.104493000000005,-21.883934,0
10000868,DALSMÁ1,Dalsmári / Lindasmári,64.104551000000001,-21.889135,0
10000869,DALSMÁ4,Dalsmári / Lindasmári,64.104647,-21.88916,0
10000870,DALSMÁ3,Smáraskóli,64.102855000000005,-21.894009,0
10000871,DALSMÁR,Smáraskóli,64.102914999999996,-21.893706999999999,0
10000872,FÍFUHV5,Smárar,64.102284999999995,-21.892144999999999,0
10000873,FÍFUHVA,Smárar,64.102069999999998,-21.892386999999999,0
10000874,FÍFUHV4,Smáralind,64.102703000000005,-21.886313999999999,0
10000875,FÍFUHV1,Smáralind,64.102525,-21.885822999999998,0
10000876,FÍFUHV2,Lindir,64.098921000000004,-21.871548000000001,0
10000877,SALAVEG,Salavegur / Ársalir,64.094351000000003,-21.857935999999999,0
10000880,ARNARN2,Arnarnesvegur / Salavegur,64.089365999999998,-21.845248000000002,0
10000882,LINDAR2,Lindarvegur,64.100825,-21.871459000000002,0
10000883,HLÍÐAR2,Hlíðardalsvegur / Kópalind,64.102108999999999,-21.864024000000001,0
10000884,HLÍÐAR1,Hlíðardalsvegur / Iðalind,64.099474000000001,-21.862352999999999,0
10000885,HLÍÐARD,Hvammsvegur,64.096328,-21.858788000000001,0
10000886,SALAVE6,Versalir,64.091554000000002,-21.858180999999998,0
10000887,SALAVE1,Salavegur / Fensalir,64.093776000000005,-21.853171,0
10000889,SALAVE2,Salavegur / Kórsalir,64.092119999999994,-21.846356,0
10000891,SALAVE7,Salavegur / Ársalir,64.094489999999993,-21.857976000000001,0
10000892,FITJALI,Hlíðarvegur / Grænatunga,64.108301999999995,-21.895524000000002,0
10000893,LINDARV,Hlíðarvegur / Vogatunga,64.107808000000006,-21.901346,0
10000894,HLÍÐAR9,Hlíðarvegur / Hrauntunga,64.108751999999996,-21.890087999999999,0
10000895,SKÁLAH1,Hlíðarhjalli / Brekkuhjalli,64.107586999999995,-21.879615999999999,0
10000900,SMÁRAH3,Smárahvammsvegur / Hlíðarsmári,64.097631000000007,-21.891483999999998,0
10000901,SMÁRAH2,Smáralind,64.100014999999999,-21.889215,0
10000903,SMÁRAHV,Smáralind,64.099988999999994,-21.889837,0
10000904,SMÁRAH1,Smárahvammsvegur / Hlíðarsmári,64.097616000000002,-21.891752,0
10000905,FÍFUHV8,Versalir,64.091631000000007,-21.858004000000001,0
10000906,KÁRSNE4,Kársnesbraut / Huldubraut,64.114277000000001,-21.914967000000001,0
10000907,HVAMMSV,Hvammsvegur,64.096463,-21.858741999999999,0
10000908,HLÍÐA11,Hlíðardalsvegur / Iðalind,64.098855,-21.862279999999998,0
10000909,HLÍÐA10,Hlíðardalsvegur / Krossalind,64.102216999999996,-21.863889,0
10000910,LINDAR3,Lindarvegur,64.100793999999993,-21.871763000000001,0
10000911,SALAVE8,Salavegur / Rjúpnasalir,64.090012000000002,-21.843933,0
10000917,SKÁLAH4,Skálaheiði,64.110944000000003,-21.873839,0
10000918,HJALLAK,Hjallakirkja,64.109514000000004,-21.866139,0
10000919,HLÍÐA12,Hlíðarhjalli / Fífuhjalli,64.107695000000007,-21.860097,0
10000920,BÚÐAKÓR,Rjúpnavegur,64.086819000000006,-21.833739999999999,0
10000922,BÚÐAKÓ2,Hörðuvallaskóli,64.084613000000004,-21.825444000000001,0
10000923,BÚÐAKÓ5,Hörðuvallaskóli,64.084677999999997,-21.826077999999999,0
10000925,BÚÐAKÓ3,Rjúpnavegur,64.086905000000002,-21.833584999999999,0
10000926,SKÁLAH5,Skálaheiði,64.110980999999995,-21.873669,0
10000927,ENGIHJA,Engihjalli,64.109807000000004,-21.860417999999999,0
10000928,ÁLFHÓL3,Álfhólsskóli / Efstihjalli,64.110826000000003,-21.862431000000001,0
10000945,VATNSE3,Vatnsendavegur / Breiðahvarf,64.090773999999996,-21.807935000000001,0
10000946,ÁLFHÓL5,Álfhólsskóli / Digranes,64.111428000000004,-21.872992,0
10000948,NÝBÝL12,Lundur,64.114587,-21.894919999999999,0
10000950,ÞINGMAN,Þingmannaleið / Vallakór,64.083771999999996,-21.818532999999999,0
10000951,BOÐAÞIN,Boðaþing,64.082119000000006,-21.817871,0
10000953,VATNSE6,Vatnsendahvarf / Víkurhvarf,64.093626,-21.808357000000001,0
10000954,VATNSE7,Vatnsendahvarf / Ögurhvarf,64.096424999999996,-21.805488,0
10000955,VATNSE9,Vatnsendahvarf / Ögurhvarf,64.096530000000001,-21.805769999999999,0
10000956,VATNSE8,Vatnsendahvarf / Víkurhvarf,64.093697000000006,-21.808651000000001,0
10000957,DALAÞIN,Dalaþing,64.08076,-21.813769,0
10009990,KÓPAV./,Kópav./Garðab.,64.1018307451979,-21.9083315266749,0
10009991,KÓPAV.1,Kópav./Reykjav.,64.0971003397632,-21.8053916893437,0
10009992,KÓPAV.2,Kópav./Garðab.,64.0991756105425,-21.9064140490709,0
10009993,KÓPAV.3,Kópav./Garðab.,64.1032351751967,-21.905127794887,0
10009994,KÓPAV.4,Kópav./Reykjav.,64.1135103533253,-21.8439007105743,0
11000100,NESVEG7,Grænamýri,64.146191000000002,-21.977658999999999,0
11000101,NESVEG8,Nesvegur / Skerjabraut,64.148336,-21.98321,0
11000102,SUÐURS4,Eiðistorg,64.150700999999998,-21.987076999999999,0
11000103,SUÐURS5,Íþróttamiðstöð Seltjarnarness,64.149907999999996,-21.992431,0
11000104,SUÐURS6,Suðurströnd / Bakkavör,64.151323000000005,-22.002625999999999,0
11000105,SUÐURS7,Suðurströnd / Miðbraut,64.153259000000006,-22.004812000000001,0
11000106,LINDAR4,Lindarbraut / Hæðarbraut,64.155473000000001,-22.003511,0
11000107,LINDAR5,Lindarbraut / Hofgarðar,64.157640000000001,-22.001297000000001,0
11000108,NORÐU15,Norðurströnd / Bollagarðar,64.157635999999997,-21.992570000000001,0
11000109,NORÐU17,Norðurströnd / Fornaströnd,64.154798,-21.986626999999999,0
11000110,NORÐU18,Norðurströnd / Austurströnd,64.152591999999999,-21.985946999999999,0
11000111,NESVE11,Eiðistorg,64.150386999999995,-21.9861,0
11000112,NESVE10,Nesvegur / Skerjabraut,64.148036000000005,-21.982980999999999,0
11000113,NESVEG9,Grænamýri,64.146086999999994,-21.977692000000001,0
11000147,NORÐU16,Norðurströnd / Barðaströnd,64.156782000000007,-21.988204,0
11009990,SELTJAR,Seltjarnarn./Reykjav.,64.1458914209074,-21.9766058205449,0
11009991,SELTJA1,Seltjarnarn./Reykjav.,64.1508147073592,-21.9820042262986,0
13001201,HAFNAR2,Arnarneshæð,64.099867000000003,-21.916848999999999,0
13001202,ARNARNE,Arnarneshæð,64.099334999999996,-21.913226000000002,0
13001204,ARNARN4,Arnarneshæð,64.099529000000004,-21.912901999999999,0
13001206,VÍFILS9,Vífilsstaðavegur / Sjávargrund,64.091965000000002,-21.929767999999999,0
13001207,ARNARN1,Arnarnesvegur / Bæjarbraut,64.098382999999998,-21.903811000000001,0
13001208,KARLAB1,Karlabraut / Reynilundur,64.085650999999999,-21.909578,0
13001209,KARLAB3,Karlabraut / Espilundur,64.085800000000006,-21.909279000000002,0
13001210,KARLAB5,Karlabraut / Furulundur,64.088234999999997,-21.907285000000002,0
13001211,KARLAB2,Karlabraut / Búðir,64.089626999999993,-21.904301,0
13001212,KARLAB4,Karlabraut / Heiðarlundur,64.088218999999995,-21.907533000000001,0
13001215,HOFSTA2,Vídalínskirkja,64.088155999999998,-21.913115999999999,0
13001216,HOFSTAÐ,Vídalínskirkja,64.088003,-21.913181000000002,0
13001218,VÍFILSS,Vídalínskirkja,64.086775000000003,-21.916422000000001,0
13001219,VÍFILS4,Garðatorg,64.088500999999994,-21.922039000000002,0
13001220,BÆJARBR,Garðatorg,64.089601999999999,-21.921188999999998,0
13001221,BÆJARB1,Hofsstaðabraut / Lyngmóar,64.091297999999995,-21.914408000000002,0
13001222,BÆJARB7,Fjölbrautaskólinn í Garðabæ / FG,64.092528000000001,-21.902847000000001,0
13001223,BÆJARB6,Bæjarbraut / Blómahæð,64.096422000000004,-21.902784,0
13001224,KARLABR,Karlabraut / Búðir,64.089579999999998,-21.904582999999999,0
13001225,BÆJARB4,Bæjarbraut / Maltakur,64.096019999999996,-21.90212,0
13001226,BÆJARB5,Fjölbrautaskólinn í Garðabæ / FG,64.092585,-21.903220999999998,0
13001227,BÆJARB3,Hofsstaðabraut / Hlíðarbyggð,64.091082,-21.914151,0
13001228,BÆJARB2,Garðatorg,64.089523999999997,-21.921489000000001,0
13001232,IKEA,IKEA,64.075575000000001,-21.913277999999998,0
13001233,FLATAH2,Flatahraun / Álftanesvegur,64.077515000000005,-21.929596,0
13001234,BÆJAR14,Bæjarbraut / Línakur,64.0979809046859,-21.9071613098249,0
13001300,ÁSGARÐ2,Ásgarður,64.089679000000004,-21.929797000000001,0
13001301,ÁSABRAU,Ásabraut / Arnarás,64.09075,-21.942955999999999,0
13001302,ÁSABRA3,Ásabraut / Birkiás,64.088076000000001,-21.940529000000002,0
13001303,ÁSABRA2,Ásabraut / Brekkuás,64.086973,-21.942166,0
13001304,ÁSABRA1,Ásabraut / Hraunsholtsbraut,64.085690999999997,-21.950247999999998,0
13001305,ÁLFTANE,Álftanesvegur / Herjólfsgata,64.085065999999998,-21.968357999999998,0
13001306,ÁLFTAN1,Álftanesvegur / Garðaholtsvegur,64.089246000000003,-21.982334000000002,0
13001322,ÁLFTAN6,Garðahraun,64.084827000000004,-21.958036,0
13001323,ÁLFTAN7,Garðahraun,64.084719000000007,-21.957896000000002,0
13001328,ÁLFTAN3,Álftanesvegur / Garðaholtsvegur,64.088768999999999,-21.981235000000002,0
13001329,ÁLFTAN2,Álftanesvegur / Herjólfsgata,64.084810000000004,-21.967694999999999,0
13001330,VÍFIL10,Vífilsstaðavegur / Sjáland,64.091666000000004,-21.942917999999999,0
13001333,VÍFILS6,Vífilsstaðavegur / Sjáland,64.091819999999998,-21.942955999999999,0
13001334,VÍFILS8,Garðatorg,64.088165000000004,-21.921699,0
13001335,VÍFILS7,Vídalínskirkja,64.086336000000003,-21.915693999999998,0
13001336,VÍFILS5,Vífilsstaðavegur / Sjávargrund,64.092021000000003,-21.929625999999999,0
13001337,VÍFILST,Vífilsstaðavegur / Markarflöt,64.084208000000004,-21.904143000000001,0
13001338,VÍFILS1,Vífilsstaðir,64.082295999999999,-21.890236000000002,0
13001339,VÍFILS3,Vífilsstaðavegur / Asparlundur,64.084171999999995,-21.902866,0
13001343,SUÐURHR,Suðurhraun,64.077766999999994,-21.926525999999999,0
13001344,AUSTUR8,Austurhraun / Suðurhraun,64.076160999999999,-21.922743000000001,0
13001345,MAREL,Marel,64.076783000000006,-21.918972,0
13001346,AUSTUR9,Austurhraun / Miðhraun,64.078025999999994,-21.914425999999999,0
13001347,AUSTU11,Austurhraun / Miðhraun,64.078046999999998,-21.914549000000001,0
13001348,MAREL1,Marel,64.076843999999994,-21.919125999999999,0
13001349,AUSTU10,Austurhraun / Suðurhraun,64.076222000000001,-21.922933,0
13001350,SUÐURH8,Suðurhraun,64.077831000000003,-21.926386999999998,0
13001351,ÁSABRA4,Ásabraut / Hraunsholtsbraut,64.085576000000003,-21.950153,0
13001352,ÁSABRA5,Ásabraut / Brekkuás,64.086952999999994,-21.941986,0
13001353,ÁSABRA6,Ásabraut / Birkiás,64.088123999999993,-21.940318999999999,0
13001354,ÁSABRA7,Ásabraut / Arnarás,64.090879000000001,-21.942775000000001,0
13001355,SJÁLAND,Sjálandsskóli,64.092082,-21.936259,0
13001356,SJÁLAN1,Sjálandsskóli,64.092176,-21.93456,0
13001361,KAUPTÚN,Kauptún,64.074007,-21.914028,0
13001362,ARNAR12,Arnarnesvegur / Nónhæð,64.096512,-21.894143,0
13001504,REYKJA7,Hraunsholt,64.086284000000006,-21.937747999999999,0
13001506,HAFNAR4,Silfurtún,64.095162999999999,-21.922373,0
13001507,HAFNAR5,Arnarneshæð,64.099366000000003,-21.914992000000002,0
13001523,HAFNAR3,Hegranes,64.096185000000006,-21.921987999999999,0
13001525,REYKJAV,Ásar,64.086354999999998,-21.938268999999998,0
13001584,FLATAH6,Flatahraun / Álftanesvegur,64.077451999999994,-21.92963,0
13001585,GÓA,Góa,64.075887,-21.928453,0
13001586,REYKJ23,Reykjanesbraut / Vífilsstaðir,64.082286,-21.890105,0
13001587,REYKJ24,Reykjanesbraut / Vífilsstaðavegur,64.083042,-21.896583,0
13009990,GARÐAB.,Garðab./Hafnarfj.,64.0833686454624,-21.946096048053,0
13009991,GARÐAB1,Garðab./Kópav.,64.1016222466857,-21.9082827790938,0
13009992,GARÐAB2,Garðab./Kópav.,64.0990664777016,-21.9064639656822,0
13009993,GARÐAB3,Garðab./Kópav.,64.1025224629367,-21.9057477525196,0
13009994,GARÐAB4,Garðab./Hafnarfj.,64.0774002705876,-21.9308367535753,0
13009995,GARÐAB5,Garðab./Álftanes,64.0999395796472,-22.0074841378133,0
14001500,FJÖRÐUR,Fjörður,64.067849,-21.957284,0
14001501,REYKJA4,Sjónarhóll,64.072041999999996,-21.954509999999999,0
14001502,REYKJA5,Hraunbrún,64.075941,-21.951317,0
14001503,REYKJA6,Stakkahraun,64.079736999999994,-21.948809000000001,0
14001504,HJALLA7,Hjallabraut / Hraunbrún,64.072402,-21.966206,0
14001505,HJALLA8,Hjallabraut / Skátaheimilið,64.075421,-21.966105,0
14001506,HJALLA9,Hjallabraut / Skjólvangur,64.077295,-21.965835,0
14001512,HJALL10,Hjallabraut / Laufvangur,64.078802,-21.954223,0
14001513,FLATAH7,Flatahraun / Sléttahraun,64.075161,-21.950128,0
14001514,IÐNSKÓL,Iðnskólinn,64.075418,-21.94595,0
14001515,KAPLAKR,Kaplakriki,64.075421,-21.936658,0
14001516,HAMRABE,Hamraberg / Víðiberg,64.073995,-21.932517,0
14001517,HAMRAB4,Hamraberg / Lyngberg,64.073107,-21.934333,0
14001518,HAMRAB5,Hamraberg / Hnotuberg,64.071659,-21.936371,0
14001519,HAMRAB6,Hamraberg / Einiberg,64.068279,-21.935925,0
14001520,LÆKJARS,Lækjarskóli,64.067521,-21.939938,0
14001521,SELVOGS,Selvogsgata,64.06374,-21.946437,0
14001522,ÖLDUTÚN,Öldutúnsskóli,64.062594,-21.944402,0
14001523,KALDÁR3,Kaldárselsvegur / Dalsás,64.057965,-21.934665,0
14001524,BREKKUÁ,Brekkuás,64.054817,-21.93035,0
14001525,GOÐATOR,Goðatorg,64.057963,-21.949083,0
14001526,REYKJA1,Hjallabraut,64.079085000000006,-21.94997,0
14001527,REYKJA2,Hraunbrún,64.074785000000006,-21.952546999999999,0
14001528,REYKJA3,Hellisgerði,64.071811999999994,-21.955183000000002,0
14001529,VESTU37,Vesturgata / Pakkhúsið,64.069953,-21.960135,0
14001530,VESTU15,Vesturgata / Norðurbakki,64.069946000000002,-21.963411000000001,0
14001531,VESTU14,Vesturgata / Bungalow,64.070682000000005,-21.965226000000001,0
14001532,FLÓKAG1,Sundhöll Hafnarfjarðar,64.072826000000006,-21.969366999999998,0
14001533,HJALLA6,Skjólvangur,64.077607999999998,-21.966408999999999,0
14001534,HRAFNIS,Hrafnista,64.079139999999995,-21.971700999999999,0
14001535,HJALLA5,Hjallabraut / Víðivangur,64.078841999999995,-21.963587,0
14001536,HJALLA4,Hjallabraut / Miðvangur,64.079269999999994,-21.958053,0
14001537,HJALLA3,Hjallahraun,64.078033000000005,-21.947396000000001,0
14001538,ÁLFASKE,Mávahraun,64.074825000000004,-21.942399999999999,0
14001539,ÁLFASK1,Álfaskeið,64.071306000000007,-21.941305,0
14001540,SÓLVANG,Sólvangur,64.068838999999997,-21.939605,0
14001541,HRINGB9,Flensborg,64.064380999999997,-21.947991999999999,0
14001542,HRING12,Flensborg,64.064357000000001,-21.948488999999999,0
14001543,HRING11,Hlíðarbraut,64.062707000000003,-21.953896,0
14001544,HRING10,Suðurbæjarlaug,64.060473000000002,-21.962541999999999,0
14001545,STRAND5,Strandgata / Flensborgartorg,64.062054000000003,-21.961625000000002,0
14001546,STRAND6,Strandgata / Fjörukráin,64.065841000000006,-21.956042,0
14001547,ÁSVALL2,Ásvallalaug,64.052061,-21.974783,0
14001550,SUÐURB3,Suðurbraut / Smárabarð,64.060139,-21.966671,0
14001551,HJALLAB,Hjallabraut / Miðvangur,64.079561999999996,-21.958359000000002,0
14001552,HJALLA1,Hjallabraut / Víðivangur,64.079396000000003,-21.962947,0
14001553,HJALLA2,Skjólvangur,64.077691999999999,-21.966353000000002,0
14001554,FLÓKAGA,Sundhöll Hafnarfjarðar,64.072793000000004,-21.969543999999999,0
14001555,VESTURG,Vesturgata / Bungalow,64.070666000000003,-21.965676999999999,0
14001556,VESTU13,Vesturgata / Norðurbakki,64.069818999999995,-21.963072,0
14001558,SUÐURB6,Suðurbraut / Hvaleyrarbraut,64.056582,-21.977544,0
14001561,LÆKJAR2,Lækjargata,64.067288000000005,-21.947194,0
14001562,SUÐURB5,Suðurbraut / Melabraut,64.058801000000003,-21.971655999999999,0
14001563,HVALEY1,Kaldárselsvegur,64.058817000000005,-21.939937,0
14001564,KALDÁR2,Kaldárselsvegur,64.058903999999998,-21.940189,0
14001567,HÁHOLT2,Háholt / Akurholt,64.055659000000006,-21.979984000000002,0
14001568,HÁHOLT3,Háholt / Bæjarholt,64.057010000000005,-21.982707000000001,0
14001569,HÁHOLT4,Háholt / Hörgsholt,64.057772,-21.985420000000001,0
14001570,MIKLAHO,Miklaholt,64.059531000000007,-21.986919,0
14001577,FJARÐA1,Fjarðarkaup,64.081496000000001,-21.938210999999999,0
14001580,HRINGB8,Jófríðarstaðavegur,64.062611000000004,-21.953707999999999,0
14001582,ÁLFASK2,Álfaskeið / Mávahraun,64.074792000000002,-21.942184999999998,0
14001583,SÓLVAN1,Sólvangur,64.068899999999999,-21.939511,0
14001585,HJALLAH,Hjallahraun,64.078219000000004,-21.947617000000001,0
14001586,SUÐURB2,Suðurbraut / Þúfubarð,64.058718999999996,-21.971502000000001,0
14001587,HRINGB7,Suðurbæjarlaug,64.060402999999994,-21.962432,0
14001588,HLÍÐARB,Hlíðarberg / 10-11,64.066405000000003,-21.935842000000001,0
14001589,HLÍÐAR3,Hlíðarberg / Birkihlíð,64.062641999999997,-21.934570000000001,0
14001590,HLÍÐAR4,Hlíðarberg / Engjahlíð,64.060323999999994,-21.932901000000001,0
14001591,HLÍÐAR5,Hlíðarberg / Sóleyjarhlíð,64.058767000000003,-21.927344000000002,0
14001592,HLÍÐAR6,Hlíðarberg / Móberg,64.060179000000005,-21.923680000000001,0
14001593,HLÍÐAB3,Hlíðarberg / Lindarberg,64.062246999999999,-21.925333999999999,0
14001594,HLÍÐAB2,Hlíðarberg / Klettaberg,64.064481000000001,-21.927641000000001,0
14001595,HLÍÐAB1,Setbergsskóli,64.066092999999995,-21.933593999999999,0
14001596,HLÍÐABE,Hlíðarberg / Hamraberg,64.067181000000005,-21.936015999999999,0
14001597,LÆKJAR1,Lækjargata,64.067344000000006,-21.947980000000001,0
14001600,STRANDG,Strandgata / Fjörukráin,64.065194000000005,-21.956772999999998,0
14001601,STRAND1,Strandgata / Flensborgartorg,64.062178000000003,-21.96172,0
14001602,KIRKJUV,Kirkjuvellir,64.050652999999997,-21.982216999999999,0
14001603,DREKAV2,Daggarvellir,64.048204999999996,-21.980834999999999,0
14001604,DREKAVE,Hraunvallaskóli,64.045599999999993,-21.979188000000001,0
14001605,HAUKAH1,Haukahús,64.053245000000004,-21.971125000000001,0
14001606,ÁSBRAUT,Ástjörn,64.054096000000001,-21.965866999999999,0
14001607,ÁSBRAU1,Ásbraut / Álftaás,64.056630999999996,-21.957028000000001,0
14001608,VÖRÐUTO,Vörðutorg,64.055724999999995,-21.945865000000001,0
14001609,ÁSBRAU5,Ásbraut / Álftaás,64.056764999999999,-21.956983999999999,0
14001610,ÁSBRAU3,Ástjörn,64.054939000000005,-21.965700999999999,0
14001611,ÁSBRAU4,Suðurhvammur,64.057241000000005,-21.965128,0
14001612,HAUKAHÚ,Haukahús,64.053334000000007,-21.971691,0
14001613,DREKAV1,Hraunvallaskóli,64.045546000000002,-21.979054999999999,0
14001614,DREKAV3,Daggarvellir,64.048361,-21.980808,0
14001615,KIRKJU1,Kirkjuvellir,64.050623000000002,-21.981940999999999,0
14001616,ÁSVALL1,Ásvallalaug,64.052789,-21.975244,0
14001617,KIRKJUT,Kirkjutorg,64.051702,-21.980002,0
14001618,KIRKJU7,Kirkjutorg,64.051711,-21.979893,0
14001619,ÁSVALLA,Ásvallalaug,64.05275,-21.974952,0
14001620,ÁSBRAU2,Kelduhvammur,64.057287000000002,-21.965357000000001,0
14001623,FJARÐAR,Fjarðarkaup,64.081496000000001,-21.939793999999999,0
14001624,SKÚTAH1,Skútahraun / Slökkvistöð,64.081646000000006,-21.936966999999999,0
14001626,LÆKJAR3,Grænakinn,64.066051000000002,-21.944889,0
14001627,ÁLFASK3,Álfaskeið,64.071382,-21.941172000000002,0
14001629,MIKLAH1,Miklaholt,64.059600000000003,-21.986930999999998,0
14001630,HÁHOLT7,Háholt / Hörgsholt,64.057631000000001,-21.985164999999999,0
14001631,HÁHOLT6,Háholt / Bæjarholt,64.056916000000001,-21.982859000000001,0
14001632,HÁHOLT5,Háholt / Akurholt,64.055567999999994,-21.979975,0
14001634,LÆKJAR4,Grænakinn,64.066074999999998,-21.944603999999998,0
14001635,HERJÓL2,Hrafnista,64.079054999999997,-21.971916,0
14001636,HERJÓL1,Herjólfsgata / Útsýnispallur,64.075018999999998,-21.973148999999999,0
14001637,HERJÓLF,Herjólfsgata / Útsýnispallur,64.075104999999994,-21.972971000000001,0
14001638,HVANNA4,Hnoðravellir,64.043227999999999,-21.96752,0
14001639,HVANNA3,Glitvellir,64.042418999999995,-21.975853999999998,0
14001640,DREKAV5,Hvannavellir,64.043017000000006,-21.977810000000002,0
14001641,FLATAH5,Flatahraun / Álfaskeið,64.075742000000005,-21.941716,0
14001642,BÆJAR10,Bæjarhraun / Flatahraun,64.077219999999997,-21.939841000000001,0
14001643,BÆJARH9,Bæjarhraun,64.079598000000004,-21.940570000000001,0
14001644,BÆJARHR,Bæjarhraun,64.079588000000001,-21.940795000000001,0
14001645,BÆJARH8,Bæjarhraun / Flatahraun,64.077162999999999,-21.940054,0
14001646,FLATAH4,Flatahraun / Álfaskeið,64.075714000000005,-21.943929000000001,0
14001647,DREKAV4,Hvannavellir,64.043002999999999,-21.977965999999999,0
14001648,HVANNAV,Glitvellir,64.042339999999996,-21.97579,0
14001649,HVANNA1,Hnoðravellir,64.043163000000007,-21.967206000000001,0
14001650,HVALEY2,Hvaleyrarbraut / Brekkutröð,64.060387000000006,-21.978211000000002,0
14001651,HVALEY3,Hvaleyrarbraut / Stapagata,64.062421000000001,-21.968675999999999,0
14001652,HVALEY4,Hvaleyrarbraut / Stapagata,64.062475000000006,-21.968682000000001,0
14001653,HVALEY5,Hvaleyrarbraut / Brekkutröð,64.060473000000002,-21.978383999999998,0
14001655,HVANNA2,Klukkuvellir,64.043668999999994,-21.96265,0
14001660,KIRKJU3,Akurvellir,64.049266000000003,-21.983865999999999,0
14001661,KIRKJU4,Akurvellir,64.049250999999998,-21.983720999999999,0
14001662,KIRKJUG,Kirkjugarður Hafnarfjarðar,64.061706,-21.941994,0
14009990,HAFNAR7,Hafnarfj./Garðab.,64.0835915526847,-21.9443498054258,0
14009991,HAFNAR8,Hafnarfj./Garðab.,64.0773984868528,-21.9307889298399,0
14009992,HAFNA13,Hafnarfj./Sveitarf.Vogar,64.0279257181679,-22.1030727633936,0
16031307,NORÐURN,Eyvindarstaðavegur,64.106446000000005,-22.009606999999999,0
16031308,NORÐU12,Túngata,64.109385000000003,-22.012975000000001,0
16031309,JÖRFAVE,Jörfavegur,64.114947999999998,-22.005856999999999,0
16031310,NORÐU14,Túngata,64.109252999999995,-22.012978,0
16031311,SUÐURNE,Sjávargata,64.109516999999997,-22.018227,0
16031312,SUÐURN1,Hólmatún,64.108250999999996,-22.021435,0
16031313,SUÐURN2,Mýrarkot,64.104416999999998,-22.027197999999999,0
16031314,SUÐURN3,Bakkavegur,64.102159999999998,-22.026917000000001,0
16031315,SUÐURN4,Höfðabraut,64.100104999999999,-22.025576000000001,0
16031317,SUÐUR11,Brekkuland,64.100621000000004,-22.019044999999998,0
16031318,SUÐUR10,Höfðabraut,64.100226000000006,-22.025542999999999,0
16031319,SUÐURN5,Brekkuland,64.100561999999996,-22.018891,0
16031320,BREIÐAM,Breiðamýri,64.102340999999996,-22.017873999999999,0
16031321,BESSAST,Álftanesvegur / Bessastaðir,64.102592000000001,-22.009632,0
16031322,BESSAS1,Norðurnesvegur / Bessastaðir,64.102255,-22.009886999999999,0
16031323,SUÐURN9,Suðurnesvegur / Klukkuholt,64.102224000000007,-22.026779999999999,0
16031324,SUÐURN8,Suðurnesvegur / Mýrarkot,64.104472999999999,-22.027018999999999,0
16031325,SUÐURN7,Suðurnesvegur / Vesturtún,64.108264000000005,-22.021144,0
16031326,SUÐURN6,Suðurnesvegur / Sjávargata,64.109500999999995,-22.017855000000001,0
16031327,NORÐU13,Eyvindarstaðavegur,64.106082000000001,-22.009841999999999,0
16039990,ÁLFTAN4,Álftanes/Garðabær,0,0,0
16040604,KLAPPA3,Baugshlíð / Skálatún,64.159549999999996,-21.725659,0
16040606,KLAPPA2,Baugshlíð / Klapparhlíð,64.163149000000004,-21.727951999999998,0
16040607,ÁLFATA5,Álfatangi / Bollatangi,64.168510999999995,-21.717552000000001,0
16040608,ÁLFATA4,Álfatangi / Brekkutangi,64.169358000000003,-21.714603,0
16040609,ÁLFATA3,Álfatangi / Þverholt,64.170057,-21.709025,0
16040610,SKEIÐH1,Skeiðholt,64.169143000000005,-21.701180000000001,0
16040611,SKÓLAB1,Varmárskóli,64.169866999999996,-21.692703000000002,0
16040612,HÁHOLT1,Háholt,64.167205999999993,-21.694365999999999,0
16040613,REYKJ16,Reykjavegur / Jónsteigur,64.163313000000002,-21.687657999999999,0
16040614,REYKJ14,Reykjavegur / Dælustöðvarvegur,64.158347000000006,-21.670779,0
16040615,REYKJ13,Reykjavegur / Reykjabyggð,64.155737999999999,-21.663995,0
16040616,BAUGSH1,Lágafellsskóli,64.167079000000001,-21.722705999999999,0
16040617,REYKJA9,Reykjavegur,64.153855,-21.65753,0
16040618,REYKJ10,Reykjavegur / Dælustöðvarvegur,64.158349000000001,-21.670577000000002,0
16040619,HÁHOLT,Háholt,64.167237,-21.693797,0
16040620,BJARKAR,Framhaldsskólinn í Mosfellsbæ / FMOS,64.16593,-21.702089,0
16040621,REYKJ32,Reykjavegur / Reykjabyggð,64.155782117462707,-21.6639075700859,0
16040622,REYKJ12,Reykjavegur / Jónsteigur,64.164058999999995,-21.689208000000001,0
16040624,VESTU17,Vesturlandsvegur / Ásland,64.171424000000002,-21.677768,0
16040634,SKÓLABR,Varmárskóli,64.169967999999997,-21.692647000000001,0
16040635,SKEIÐHO,Skeiðholt,64.169128000000001,-21.701525,0
16040636,ÁLFATAN,Álfatangi / Þverholt,64.170265999999998,-21.708993,0
16040637,ÁLFATA1,Álfatangi / Arnartangi,64.169377999999995,-21.715147000000002,0
16040638,ÁLFATA2,Álfatangi / Skeljatangi,64.168441999999999,-21.717853000000002,0
16040639,BAUGSHL,Lágafellsskóli,64.166032000000001,-21.725909999999999,0
16040641,KLAPPA1,Baugshlíð / Skálatún,64.159295999999998,-21.725839000000001,0
16040649,KLAPPAH,Baugshlíð / Blikastaðavegur,64.162987000000001,-21.728159000000002,0
16040650,REYKJ15,Reykjavegur / Völuteigur,64.160713999999999,-21.68113,0
16040651,REYKJ11,Reykjavegur / Völuteigur,64.161111000000005,-21.681836000000001,0
16040652,VESTU33,Vesturlandsvegur / Ásland,64.170692000000003,-21.679203999999999,0
16040653,LEIRVOG,Leirvogstunga,64.183772,-21.682118,0
16040655,REYKJAL,Reykjalundur,64.162784000000002,-21.663820000000001,0
16040656,TJALDAN,Tjaldanes,64.180301,-21.635617,0
16040657,MOSFEL2,Mosfell,64.180536000000004,-21.619703999999999,0
16040658,LUNDUR,Lundur,64.180738000000005,-21.606306,0
16040659,LAXNES,Laxnes,64.180336999999994,-21.590415,0
16040660,LUNDUR1,Lundur,64.18083,-21.606563999999999,0
16040661,MOSFEL3,Mosfell,64.180615000000003,-21.619986999999998,0
16040662,TJALDA1,Tjaldanes,64.180390000000003,-21.635743000000002,0
16049990,MOSFELL,Mosfellsbær/Reykjav.,64.1538864968293,-21.7376331062855,0
16049991,MOSFEL4,Mosfellsbær/Reykjavík,64.1885591040367,-21.6860932268067,0
20000003,FITJAR,Fitjar,63.973625,-22.54305,0
20000006,FITJAR1,Fitjar,63.973935,-22.543178,0
20000007,KROSSMÓ,Miðstöð,63.993969,-22.551521,0
20000008,HRING14,Hringbraut / Norðurtún,64.000792,-22.559937,0
20000010,NESVELL,Nesvellir,63.991154,-22.549142,0
20000011,NJARÐA4,Bolafótur,63.985702,-22.549317,0
20000012,NJARÐA5,Steinás,63.987306,-22.549081,0
20000013,NJARÐVÍ,Njarðvíkurtorg,63.988328,-22.548869,0
20000014,STEKKJ2,Stekkjarkot,63.972134,-22.530116,0
20000015,STEKKJ3,Stekkjarkot,63.971988,-22.530065,0
20000016,NJARÐA6,Steinás,63.977047,-22.547051,0
20000017,NJARÐA7,Bolafótur,63.985411,-22.549051,0
20000018,NJARÐV1,Njarðvíkurtorg,63.987696,-22.548561,0
20000020,FJÖLBR1,Fjölbrautaskóli Suðurnesja / FS,63.996435,-22.562531,0
20000021,HOLTAS1,Holtaskóli,63.99847,-22.562761,0
20000022,HRING15,Hringbraut / Norðurtún,64.00089,-22.559641,0
20000024,NJARÐV3,Tjarnarhverfi,63.969848,-22.513746,0
20000025,NJARÐV2,Tjarnarhverfi,63.968518,-22.514284,0
20000026,KIRKJU8,Kirkjuvogur,63.934303,-22.687508,0
20000027,LANDNÁM,Landnámsbærinn,63.935349,-22.685721,0
20000028,DJÚPIVO,Djúpivogur,63.933274,-22.682975,0
20000029,SELJAVO,Seljavogur,63.933638,-22.680521,0
20000031,HÁLEYTI,Háaleitisskóli,63.96803,-22.589808,0
20000033,ELDEY,Eldey,63.967085,-22.581452,0
20000034,FJÖRHEI,Fjörheimar,63.973134,-22.580261,0
20000036,ÁLSVELL,Álsvellir,64.00289,-22.57961,0
20000041,KEILIR1,Keilir,63.969351,-22.570984,0
20000042,KEILISB,Keilisbraut,63.97147,-22.575254,0
20000045,BOGABRA,Bogabraut,63.972781,-22.56637,0
20000047,GRÆNÁSB,Grænásbraut,63.975469,-22.565975,0
20000049,SKÓGART,Skógartorg,63.971999,-22.558921,0
20000051,GRÆNÁS1,Grænás,63.981577,-22.557891,0
20000053,ÓLAFSLU,Ólafslundur,63.990053,-22.554063,0
20000057,HJALLAV,Hjallavegur,63.989424,-22.550978,0
20000058,KROSSM1,Krossmói,63.993639,-22.549056,0
20000059,REYKJ30,Reykjavíkurtorg,63.99498,-22.550085,0
20000060,VATNSHO,Vatnsholt,64.000254,-22.576353,0
20000061,BALDUR1,Baldursgarður,64.002165,-22.570368,0
20000063,HEIÐAR1,Heiðarsel,64.009702,-22.575426,0
20000064,HEIÐARE,Heiðarendi,64.010964,-22.575363,0
20000066,HEIÐARB,Heiðarbraut,64.008333,-22.572464,0
20000067,AÐALGAT,Aðalgata,64.003242,-22.564256,0
20000069,VESTU41,Vesturgata,64.005994,-22.564646,0
20000072,MYLLUBA,Myllubakkaskóli,64.001117,-22.556697,0
20000073,HORNBJA,Hornbjarg,64.002764,-22.558661,0
20000077,VINAMIN,Vinaminni,64.004238,-22.558515,0
20000078,FISCHER,Fischershús,64.006612,-22.55833,0
20000080,GAMLI B,Gamli bærinn,64.005052,-22.556587,0
20000082,STJÁNI ,Stjáni Blái,63.997131,-22.549116,0
20000087,STEKKJ4,Stekkjargata,63.973027,-22.522569,0
20000089,KAMBUR,Kambur,63.972228,-22.511714,0
20000090,AKURSKÓ,Akurskóli,63.974372,-22.512978,0
20000091,URÐARBR,Urðarbraut,63.970337,-22.505195,0
20000092,SPÓATJÖ,Spóatjörn,63.97499,-22.505276,0
20000094,HAFDALU,Hafdalur,63.974385,-22.50035,0
20000095,UNNARDA,Unnardalur,63.972477,-22.495793,0
20000096,ASPARDA,Aspardalur,63.97101,-22.490074,0
20000097,FURUDAL,Furudalur,63.97115,-22.485729,0
20000098,KEILIR,Keilir,63.96946,-22.571307,0
20000099,GRÆNÁS,Grænás,63.981447,-22.558577,0
20000100,VESTU40,Heiðargarður,64.004759,-22.57717,0
20000101,HEIÐARS,Heiðarskóli,64.006563,-22.575019,0
20000103,HAFNARG,Hafnargata,63.999651,-22.549994,0
20000110,FLE - B,FLE - brottför (Airport),63.997068645049801,-22.6248948165054,0
20000111,FLE - K,FLE - koma (Airport),63.997109,-22.619764,0
20000116,STAPAGA,Beykidalur,63.968528,-22.490686,0
20000117,STAPAG1,Engjadalur,63.96928,-22.500377,0
20000118,AKURSK1,Akurskóli,63.974507,-22.512817,0
20000125,VIRKJUN,Virkjun,63.971673,-22.583785,0
20000128,BOGABR1,Bogabraut,63.9722,-22.565779,0
20000129,NJARÐV4,Grænásbraut,63.975459,-22.565537,0
20000130,SKÓGARB,Skógarbraut,63.971421239310601,-22.551514262631802,0
20000131,SKÓGA17,Skógarbraut,63.971433380772503,-22.551692682669,0
20000132,HRING17,Hringbraut / Melteigur,64.005568,-22.565461,0
20000133,HRING18,Hringbraut / Knattspyrnuvöllur,63.998337744079898,-22.5565331531079,0
20000134,HRING19,Hringbraut / Knattspyrnuvöllur,63.998371222834898,-22.5564066411808,0
20000135,HRING20,Hringbraut / Melteigur,64.006591,-22.565913,0
20000605,IÐAVELL,Iðavellir,63.995871236977301,-22.5753401044283,0
20009990,REYKJ25,Reykjanesbær / Sveitarfélagið Vogar,63.9623959629456,-22.4230737439492,0
20009991,REYKJ26,Reykjanesbær/Garður,64.0246757684514,-22.5893372852081,0
20009992,REYKJ27,Reykjanesbær/Sveitarfélagið Vogar,63.9612666674541,-22.420196021278,0
20009993,REYKJ28,Reykjanesbær/Grindavíkurkaupstaður,63.9435845479275,-22.4283245823837,0
23000001,GRINDA1,Grindavík - Aðalbraut,63.843765,-22.435763,0
23000002,LÖGREGL,Lögreglustöðin Grindavík,63.839459090783301,-22.437825607729099,0
23009990,GRINDA2,Grindavík/Reykjanesbær,63.9417115772302,-22.428266007829,0
25030001,ÍÞRÓTTA,Íþróttamiðstöðin Sandgerði,64.033948,-22.700544,0
25030002,VARÐAN,Varðan,64.038352,-22.704308,0
25030003,ÞEKKING,Þekkingarsetur Suðurnesja,64.041085322698095,-22.712208956330599,0
25039990,SANDGER,Sandgerði / Garður,64.0700584615009,-22.6712624947954,0
25040002,PÓSTHÚS,Pósthúsið Garði / Garður,64.069799,-22.651014,0
25040005,NÝJALA1,Nýjaland,64.075932,-22.668548,0
25040006,GARÐVAN,Garðvangur,64.0720646878747,-22.657318767610899,0
25040007,GARÐVA1,Garðvangur,64.072152900000006,-22.657284409999999,0
25040008,VELLIR,Vellir,64.064251040064306,-22.639801909407701,0
25040009,VELLIR1,Vellir,64.064288069085194,-22.639762033330999,0
25049990,GARÐUR ,Garður / Reykjanesbær,64.0247117752871,-22.5893514495234,0
25049991,GARÐUR/,Garður/Sandgerði,64.0700259246539,-22.6712512817049,0
25060001,GRINDAV,Grindavíkurafleggjari,63.96244,-22.42051,0
25060002,VOGAAFL,Vogaafleggjari,63.975115,-22.359635,0
25060003,VOGAR,Vogar - Gamla pósthúsið ,63.982788,-22.379973,0
25060005,VOGAAF1,Vogaafleggjari,63.973609299640799,-22.357684341092298,0
25069990,SVEITA2,Sveitarfélagið Vogar / Hafnarfjörður,64.0275041274059,-22.1028371775358,0
25069991,SVEITA3,Sveitarf.Vogar/Reykjanesbær,63.9625070060418,-22.4230297842807,0
25069992,SVEITA4,Sveitarfélagið Vogar/Reykjanesbær,63.9612943044459,-22.4202976798446,0
30001807,GARÐABR,Garðabraut,64.319620999999998,-22.063735999999999,0
30001808,BÆJARSK,Bæjarskrifstofan,64.320346999999998,-22.069842000000001,0
30001809,KIRKJUB,Kirkjubraut / Stillholt,64.321487000000005,-22.075413000000001,0
30001810,UPPLÝSI,Akratorg,64.317774999999997,-22.082324,0
30001811,KIRKJU2,Kirkjubraut / Stillholt,64.321423999999993,-22.074950999999999,0
30001812,BÆJARS1,Bæjarskrifstofan,64.320495,-22.070502,0
30001813,GARÐAB6,Garðabraut,64.319542999999996,-22.063942999999998,0
30001822,ÞJÓÐBRA,Þjóðbraut,64.326207999999994,-22.055537999999999,0
30001823,JAÐARSB,Innnesvegur,64.319884999999999,-22.059070999999999,0
30001824,JAÐAR12,Innnesvegur,64.320121999999998,-22.059034,0
30001825,ÞJÓÐBR1,Þjóðbraut,64.326172999999997,-22.055416999999998,0
30001827,INNNES1,Bresaflöt,64.322727,-22.057072000000002,0
30001828,INNNES2,Bresaflöt,64.322708000000006,-22.056719999999999,0
30009991,AKRANE1,Akranes/Hvalfjarðarsveit,64.325996,-22.021258,0
30009992,AKRANE2,Akranes/Hvalfjarðarsveit,64.3461489421663,-22.0074487152713,0
31770001,STYKKIS,Stykkishólmur - höfnin,65.07789,-22.726806,0
31770002,STYKKI1,Stykkishólmur - Olís,65.072023,-22.733308,0
31779991,STYKKI2,Stykkishólmsbær/Helgafellsveit,0,0,0
35111819,MELAHV1,Melahverfi,64.38244,-21.849571,0
35119990,HVALFJA,Hvalfjarðarsveit/Reykjavík,0,0,0
35119991,HVALFJ2,Hvalfjarðarsveit/Akranes,64.2740211640528,-21.8391142977377,0
35119992,HVALFJ3,Hvalfjarðarsveit/Borgarbyggð,64.5268974481245,-21.8835516449464,0
35119993,HVALFJ5,Hvalfjarðarsveit/Akranes,64.3436996038464,-22.0128360161826,0
36091900,HYRNAN,Borgarnes,64.54366,-21.911567,0
36091901,BIFRÖST,Bifröst,64.766313,-21.552072,0
36091902,HVANNEY,Hvanneyri,64.563512,-21.760036,0
36091903,KLEPPSJ,Kleppjárnsreykir,64.655831,-21.403658,0
36091904,REYKHO1,Reykholt,64.664498,-21.294091,0
36091906,BAULA,Baula,64.674734,-21.666195,0
36091907,ÍÞRÓTT1,Íþróttamiðstöðin,64.5402084852402,-21.921574032679001,0
36099990,BORGARB,Borgarbyggð/Hvalfjarðarsveit,64.5170648569527,-21.8898308090713,0
36099992,BORGAR9,Borgarbyggð/Bæjarhreppur,64.9735466448457,-21.0655911253836,0
36099993,BORGA10,Borgarbyggð/Eyja og Miklaholtshreppur,64.8483397710643,-22.3393306952823,0
37090001,GRUNDAR,Grundarfjörður,64.925097,-23.260496,0
37099991,GRUNDA2,Grundarfjarðarbær / Helgafellsveit,64.9627238619073,-23.0244361511841,0
37100001,VATNALE,Vatnaleið,64.9657155788255,-22.8892991922126,0
37109990,HELGAFE,Helgafellssveit/Eyja og Miklaholtshreppur,64.9144032069523,-22.8709515118774,0
37109991,HELGAF1,Helgafellsveit/Stykkishólmsbær,65.0522866466343,-22.7691997423756,0
37130001,VEGAMÓ1,Vegamót,64.849237,-22.733502,0
37139990,EYJA OG,Eyja og Miklaholtshreppur/Borgarbyggð,64.8423782049824,-22.321553394516,0
37139991,EYJA O1,Eyja og Miklaholtshreppur/Helgafellsslveit,64.9135946119925,-22.8690280255965,0
37140001,ÓLAFSVÍ,Ólafsvík,64.893979,-23.704382,0
37140002,RIF,Rif,64.92055,-23.83285,0
37140003,HELLISS,Hellissandur,64.917249,-23.883747,0
37149990,SNÆFELL,Snæfellsbær / Grundarfjarðarbær,64.9493709532256,-23.4786240701122,0
38110001,BÚÐARDA,Búðardalur,65.108063,-21.763202,0
38110002,SKRIÐUL,Skriðuland,65.23363,-21.768495,0
38119990,DALABYG,Dalabyggð/Reykhólahreppur,65.4209719273021,-21.8929954134304,0
38119991,DALABY1,Dalabyggð/Borgarbyggð,64.9103165345947,-21.5203815881998,0
45020001,KRÓKSFJ,Króksfjarðarnes,65.45467,-21.923182,0
45020004,KRÓKSF1,Króksfjarðarnes,65.454697943332803,-21.924041206859901,0
45029990,REYKHÓL,Reykhólahreppur/Strandabyggð,65.5510898015043,-21.8294274549202,0
45029991,REYKHÓ1,Reykhólahreppur/Dalabyggð,65.4185262780551,-21.8907076810365,0
49080001,STAÐARS,Staðarskáli,65.144715,-21.083616,0
49089990,BÆJAR15,Bæjarhreppur/Húnaþing Vestra,65.215890377606,-21.068604106995,0
49110001,HÓLMAVÍ,Hólmavík - Kaupfélag,65.700898,-21.685735,0
49119990,STRANDA,Strandabyggð/Reykhólahreppr,65.5489645204479,-21.8347281553751,0
52000001,SAUÐÁRK,Sauðárkrókur - N1,65.740862,-19.637706,0
52000002,VARMAHL,Varmahlíð,65.553491,-19.446279,0
52000003,HOFSÓS,Hofsós,65.897242802709599,-19.412876931047901,0
52000004,HÓLAR,Hólar,65.732834450858604,-19.112004803363899,0
52009990,SVEITAR,Sveitarfélagið Skagafjörður/Akrahreppur,65.5502571698444,-19.3817853714716,0
52009991,SVEITA1,Sveitarfélagið Skagafjörður/Skagabyggð,65.7833142555727,-19.9983503378189,0
55080001,HVAMMST,Hvammstangavegur,65.352475800767095,-20.884436520936799,0
55080002,HVAMMS1,Hvammstangi,65.392146,-20.937127,0
55080003,VÍÐIGER,Víðigerði,65.381,-20.645,0
55089990,HÚNAVAT,Húnaþing Vestra/Húnavatnshreppur,65.4898047412038,-20.4388909502116,0
55089991,HÚNAÞIN,Húnaþing Vestra/Bæjarhreppur,65.1958410385143,-21.060145154406,0
56040001,BLÖNDUÓ,Blönduós,65.659872,-20.2769,0
56049990,BLÖNDU2,Blönduósbær/Skagabyggð,65.7258808278219,-20.1712733018018,0
56049991,HÚNAVA1,Blönduósbær/Húnavatnshreppur,65.6473224283007,-20.2932653396368,0
56049992,BLÖNDU3,Blönduósbær/Skagabyggð,65.7242808801265,-20.2141486186723,0
56110001,SKAGAST,Skagaströnd,65.8242363570201,-20.300123841206,0
56119990,SKAGABY,Skagabyggð/Sveitarfélagið Skagafjörður,65.7823854379931,-19.9997866549023,0
56119991,SKAGAB1,Skagabyggð/Blönduósbær,65.7257509646857,-20.1711260935847,0
56119992,SKAGAB2,Skagabyggð / Blönduósbær,65.7281810318253,-20.2147858205041,0
56129990,BLÖNDU1,Húnavatnshreppur/Blönduósbær,65.6485869465196,-20.2932335233257,0
56129991,HÚNAVA2,Húnavatnshreppur/Húnaþing Vestra,65.4822132242765,-20.4565977801392,0
57069990,AKRAHRE,Akrahreppur/Hörgárbyggð,65.4679480031478,-18.7573090207779,0
57069991,AKRAHR1,Akrahreppur/Sveitarfélagið Skagafjörður,65.5482753264969,-19.3897444346456,0
60000001,MIÐBÆR,Miðbær,65.683053,-18.09,0
60000002,HAFNARS,Hafnarstrætí,65.68095,-18.089426,0
60000003,EYRARLA,Eyrarlandsvegur,65.679718,-18.092146,0
60000004,EYRARL1,Eyrarlandsvegur,65.679652,-18.092133,0
60000005,HRAFNA1,Hrafnagilsstræti,65.677091,-18.09729,0
60000006,HRAFNAG,Hrafnagilsstræti,65.677189,-18.095416,0
60000007,ÞÓRUNN1,Þórunnarstræti / MA,65.676412,-18.098052,0
60000009,ÞÓRUNN3,Þórunnarstræti / Hlíð,65.675047,-18.097684,0
60000010,ÞÓRUNNA,Þórunnarstræti / FSA,65.673714,-18.096709,0
60000011,ÞÓRUNN4,Þórunnarstræti / Mímisbraut,65.673508,-18.097042,0
60000012,ÞÓRUNN9,Þórunnarstræti / Sunnutröð,65.67051,-18.095514,0
60000013,ÞÓRUN10,Þórunnarstræti / Lækjargata,65.668507,-18.095915,0
60000014,MIÐHÚS4,Miðhúsabraut,65.665182,-18.0908,0
60000015,NAUSTA2,Naustabraut / Krókeyrarnöf,65.664222,-18.090241,0
60000016,NAUSTA5,Naustabraut / Krókeyrarnöf,65.664213,-18.090028,0
60000017,NAUSTA4,Naustabraut,65.661833,-18.089357,0
60000018,NAUSTA1,Naustabraut,65.662131,-18.089436,0
60000019,NAUSTAB,Naustagata / Vallartún,65.661674,-18.094439,0
60000020,NAUSTA3,Naustagata / Vallartún,65.661613,-18.094244,0
60000021,KJARNA3,Kjarnagata / Sómstún,65.662827,-18.099084,0
60000022,KJARNA7,Kjarnagata / Sómatún,65.662609,-18.099091,0
60000023,KJARNA2,Kjarnagata / Naustaskóli,65.665331,-18.101314,0
60000024,KJARNA6,Kjarnagata / Naustaskóli,65.665231,-18.101313,0
60000025,KJARNA1,Kjarnagata / Heiðartún,65.666093,-18.104366,0
60000026,KJARNA5,Kjarnagata / Heiðartún,65.666039,-18.104458,0
60000027,KJARNAG,Kjarnagata / Ásatún,65.668767,-18.108311,0
60000028,KJARNA4,Kjarnagata / Bónus,65.668827,-18.108455,0
60000029,MÝRARV2,Mýrarvegur / Hringteigur,65.669796,-18.101431,0
60000030,MÝRARV4,Mýrarvegur / Hringteigur,65.669739,-18.101614,0
60000031,VERKME2,Verkmenntaskóli,65.671948,-18.104293,0
60000032,VERKME1,Verkmenntaskóli,65.672619,-18.104441,0
60000033,MÝRARVE,Mýrarvegur,65.67416,-18.105373,0
60000034,SKÓGA11,Skógarlundur / Mýrarvegur,65.674469,-18.106043,0
60000035,SKÓGA10,Skógarlundur / Grenilundur,65.674032,-18.110285,0
60000036,SKÓGA12,Skógarlundur / Heiðarlundur,65.673959,-18.11222,0
60000037,SKÓGA13,Skógarlundur / Hlíðarlundur,65.673676,-18.115512,0
60000038,SKÓGA14,Skógarlundur / Hjallalundur,65.674142,-18.119973,0
60000039,SKÓGAR8,Skógarlundur / Hjallalundur,65.673827,-18.118833,0
60000040,SKÓGA15,Skógarlundur / Hrísalundur,65.676372,-18.122134,0
60000041,SKÓGARL,Skógarlundur / Furulundur,65.676092,-18.122203,0
60000042,ÞINGVA2,Þingvallastræti / Grundargerði,65.67796,-18.118367,0
60000043,ÞINGVA4,Þingvallastræti / Grundargerði,65.678023,-18.119331,0
60000044,ÞINGVA5,Þingvallastræti / Dalsbraut,65.678426,-18.113727,0
60000045,ÞINGVA1,Þingvallastræti / Dalsbraut,65.678355,-18.112794,0
60000046,MÝRARV3,Mýrarvegur / Þingvallastræti,65.679162,-18.107823,0
60000049,HAMARS1,Hamarstígur,65.681041,-18.104135,0
60000050,ÞÓRUNN5,Þórunnarstræti / Höll,65.677461,-18.098884,0
60000052,ÞÓRUNN8,Þórunnarstræti / Hamarstígur,65.681587,-18.100242,0
60000053,ÞÓRUN11,Þórunnarstrætí / Hamarstígur,65.681825,-18.100031,0
60000054,ÞÓRUNN7,Lögreglustöð,65.684553,-18.100572,0
60000055,ÞÓRUN12,Lögreglustöð,65.685086,-18.100399,0
60000056,GLERÁR4,Glerárgata / Þórunnarstræti,65.687484,-18.098031,0
60000057,DROTTNI,Drottningarbraut,65.680149,-18.087338,0
60000058,HAFNA10,Hafnarstræti,65.673312,-18.087134,0
60000059,HAFNA11,Hafnarstræti,65.673393,-18.08697,0
60000061,AÐALST3,Aðalstræti / Duggufjara,65.668997,-18.085852,0
60000062,AÐALST1,Aðalstræti / Duggufjara,65.669451,-18.086216,0
60000063,AÐALSTR,Aðalstræti / Minjasafn,65.666318,-18.084971,0
60000064,AÐALST2,Aðalstræti / Minjasafn,65.666535,-18.084775,0
60000065,MIÐHÚS3,Skautahöll,65.664106,-18.082991,0
60000066,MIÐHÚS1,Skautahöll,65.664067,-18.083244,0
60000067,MIÐHÚSA,Miðhúsabraut,65.661629,-18.084111,0
60000068,MIÐHÚS2,Miðhúsabraut,65.661222,-18.08483,0
60000069,GLERÁRG,Glerárgata / Eiðsvallagata,65.685509,-18.091164,0
60000070,GLERÁR1,Glerárgata / Eyrarvegur,65.687259,-18.096295,0
60000071,BORGAR6,Borgarbraut / Glerártorg,65.688442,-18.103093,0
60000072,BORGAR7,Borgarbraut / Glerártorg,65.688173,-18.103687,0
60000073,BORGAR8,Borgarbraut / Háskóli,65.687106,-18.120173,0
60000074,BORGAR5,Borgarbraut / Háskóli,65.687289,-18.122405,0
60000075,HLÍÐA19,Hlíðarbraut / Samkaup,65.686596,-18.129162,0
60000076,MERKIG4,Merkigil / Kiðagil,65.684259,-18.130902,0
60000077,MERKIG3,Merkigil / Kiðagil,65.684187,-18.131765,0
60000078,MERKIG5,Merkigil / Vesturgil,65.683851,-18.138579,0
60000079,MERKIG2,Merkigil / Vesturgil,65.683492,-18.138369,0
60000080,MERKIG1,Merkigil / Skuggagil,65.68549,-18.14048,0
60000081,MERKIGI,Merkigil / Urðargil,65.687645,-18.141245,0
60000082,MERKIG6,Merkigil / Urðagil,65.687563,-18.141172,0
60000083,BUGÐUS1,Bugðusíða / Vestursíða,65.688269,-18.136218,0
60000084,BUGÐUS2,Bugðusíða / Vestursíða,65.688803,-18.135289,0
60000085,SÍÐUSE1,Síðusel,65.689778,-18.138472,0
60000086,SÍÐUSEL,Síðusel,65.689528,-18.137961,0
60000087,VESTU34,Vestursíða / Brattasíða,65.691614,-18.14159,0
60000088,VESTU35,Vestursíða / Brattasíða,65.691989,-18.141542,0
60000089,VESTURS,Vestursíða / Bæjarsíða,65.694333,-18.143371,0
60000090,VESTU36,Vestursíða / Bæjarsíða,65.694557,-18.14418,0
60000091,MIÐSÍÐ1,Miðsíða,65.69608,-18.14319,0
60000092,MIÐSÍÐ2,Miðsíða / Móasíða,65.696066,-18.142001,0
60000093,MIÐSÍÐA,Miðsíða / Múlasíða,65.694974,-18.136863,0
60000094,MIÐSÍÐ3,Miðsíða / Múlasíða,65.694808,-18.13657,0
60000095,BUGÐUS3,Bugðusíða / Bjarg,65.694203,-18.132513,0
60000096,BUGÐUSÍ,Bugðusíða / Bjarg,65.694296,-18.132572,0
60000097,AUSTURS,Austursíða / Lindarsíða,65.695,-18.12924,0
60000098,AUSTU12,Austursíða / Lindarsíða,65.694946,-18.129359,0
60000099,HLÍÐA20,Hlíðarbraut / Austursíða,65.694513,-18.126304,0
60000100,SMÁRAHL,Smárahlíð,65.69304,-18.12645,0
60000101,SKARÐS2,Skarðshlíð / Smárahlíð,65.692424,-18.125329,0
60000102,SKARÐS1,Skarðshlíð / Sunnuhlíð,65.691609,-18.12606,0
60000103,SKARÐS3,Skarðshlíð / Sunnuhlíð,65.691181,-18.126235,0
60000104,SKARÐSH,Skarðshlíð / Fosshlíð,65.689554,-18.123945,0
60000105,SKARÐS4,Skarðshlíð / Fosshlíð,65.689081,-18.124116,0
60000106,SKARÐS5,Skarðshlíð / Bakkahlíð,65.688223,-18.123904,0
60000107,GLERÁRS,Glerárskóli,65.688306,-18.117525,0
60000108,GLERÁR2,Glerárskóli,65.688096,-18.11662,0
60000109,HÖFÐAHL,Höfðahlíð / Áshlíð,65.688166,-18.11321,0
60000110,HÖFÐAH1,Höfðahlíð / Áshlíð,65.68837,-18.112498,0
60000111,HLÍÐA17,Hlíðarból,65.690304,-18.109846,0
60000112,HLÍÐA18,Hlíðarból,65.690419,-18.109798,0
60000113,HÖRGÁR2,Hörgárbraut / Þverholt,65.693625,-18.114872,0
60000114,HÖRGÁR3,Hörgárbraut / Undirhlíð,65.691858,-18.109864,0
60000115,HÖRGÁR1,Hörgárbraut / Stórholt,65.690776,-18.107598,0
60000116,HÖRGÁRB,Hörgárbraut / Stórholt,65.69093,-18.107199,0
60000117,GLERÁRB,Glerárbrú,65.689287,-18.102869,0
60000118,GLERÁR3,Glerárbrú,65.689223,-18.103407,0
60000119,TRYGGV2,Tryggvabraut,65.689801,-18.09744,0
60000120,HJALTE1,Hjalteyrargata / Tryggvabraut,65.691337,-18.091652,0
60000121,GRENIVE,Hjalteyrargata / Grenivellir,65.689626,-18.086551,0
60000122,NORÐURG,Hjalteyrargata / Eyrarvegur,65.687748,-18.084687,0
60000123,GRÆNAGA,Hjalteyrargata / Gránufélagsgata,65.686749,-18.082842,0
60000124,RÉTTAR1,Réttarhvammur,65.679715,-18.131744,0
60000125,RÉTTARH,Réttarhvammur,65.678866,-18.131584,0
60000126,FLÚÐIR,Flúðir,65.677699,-18.12388,0
60000128,SKÓGAR9,Skógarlundur / Hlíðarlundur,65.673686,-18.114603,0
60000129,VERKMEN,Verkmenntaskóli,65.672467,-18.103809,0
60000130,ÞINGVAL,Þingvallastræti,65.677423,-18.126252,0
60000131,HJALTEY,Hjalteyrargata,65.689291,-18.086094,0
60000133,LAUFÁS1,Laufásgata,65.688561,-18.082177,0
60000134,LAUFÁS2,Laufásgata,65.68853,-18.082292,0
60000135,LAUFÁSG,Laufásgata,65.686497,-18.07972,0
60000136,LAUFÁS3,Laufásgata,65.686608,-18.080024,0
60000137,KAUPVAN,Þingvallastræti / Sund,65.679119,-18.103151,0
60000138,ÞINGVA3,Þingvallastræti /Mýrarveg,65.678666,-18.108547,0
60000139,KAUPVA1,Kaupvangsstræti,65.680587,-18.090284,0
60000140,HLÍÐA21,Hlíðarbraut / Samkaup,65.686593,-18.129323,0
60000141,GLERÁR5,Glerárgata / Ráðhús,65.685184,-18.091117,0
60000142,SLÖKKVI,Slökkvistöð,65.691062,-18.093708,0
60000143,TRYGGV3,Tryggvabraut,65.689918,-18.097514,0
60000144,HAMARS2,Hamarstígur / Mýrarvegur,65.680707,-18.10814,0
60000145,MÝRARV6,Mýrarvegur / Goðabyggð,65.674964,-18.105609,0
60000146,MÝRARV5,Mýrarvegur / Norðurbyggð,65.678506999999996,-18.107243,0
60000148,DROTTN1,Drottningarbraut,65.680112,-18.087216,0
60000150,AKUREY2,Akureyri - Hof,65.6831850920279,-18.0885792179734,0
60009990,AKUREYR,Akureyrarkaupsstaður/Hörgárbyggð,65.702690243709,-18.1510787172204,0
60009991,AKUREY1,Akureyrarkaupstaður/Eyjafjarðarsveit,65.6687368295061,-18.0568598197708,0
61000001,HÚSAVÍK,Húsavík,66.046915,-17.343375,0
61000002,ÁSBYRGI,Ásbyrgi,66.030795,-16.492863,0
61000003,KÓPASKE,Kópasker,66.301272,-16.443471,0
61000004,RAUFARH,Raufarhöfn,66.452615,-15.949477,0
61000005,HÓLSFJA,Jökulsá á Fjöllum,65.626341,-16.17725,0
61009990,NORÐU21,Norðurþing/Svalbarðshreppur,66.3000675591889,-16.0000842817889,0
61009991,NORÐURÞ,Norðurþing/Tjörneshreppur,66.0816129707504,-17.3263077356462,0
61009993,NORÐU22,Norðurþing/Tjörneshreppur,66.1918356455734,-17.0022522628536,0
61009994,NORÐU24,Norðurþing/Fljótsdalshérað,65.5591691700131,-16.0091470150643,0
61009995,NORÐU23,Norðurþing/Skútustaðahreppur,65.6214877128709,-16.2014215849014,0
62500001,ÓLAFSFJ,Ólafsfjörður - Aðalgata,66.07082,-18.655939,0
62500002,SIGLUFJ,Siglufjörður - Olís,66.149834,-18.903148,0
62500003,SIGLUF1,Siglufjörður - Snorragata suður,66.142078,-18.915306,0
62500004,SIGLUF2,Siglufjörður - Snorragata suður,66.141952,-18.915041,0
62500005,ÓLAFSF2,Ólafsfjörður - Aðalgata,66.070939,-18.657531,0
62500006,ÓLAFSF3,Ólafsfjörður - Múlavegur,66.074536,-18.642085,0
62500007,ÓLAFSF1,Ólafsfjörður - Múlavegur,66.074606,-18.642297,0
62509990,FJALLAB,Fjallabyggð/Dalvíkurbyggð,66.0793472486774,-18.5703475292846,0
64000001,DALVÍK,Dalvík,65.978846,-18.530109,0
64009990,DALVÍKU,Dalvíkurbyggð/Fjallabyggð,66.0782471262264,-18.5706577694467,0
64009991,DALVÍK1,Dalvíkurbyggð/Arnarneshreppur,65.883411729286,-18.2675190598806,0
65060001,SKRIÐU1,Hjalteyri - Vegamót,65.758471,-18.232226,0
65060002,LITLI Á,Litli Árskógssandur - Vegamót,65.928321,-18.364432,0
65069990,ARNAR10,Arnarneshreppur/Dalvíkurbyggð,65.8624426542321,-18.2612041530872,0
65069991,ARNAR11,Arnarneshreppur/Hörgárbyggð,65.7600979282234,-18.2328974120062,0
65139990,EYJAFJA,Eyjafjarðarsveit/Svalbarðsstrandahreppur,65.6723766547012,-18.0450332565447,0
65139991,EYJAFJ1,Eyjafjarðarsveit/Akureyrarkaupstaður,65.6687190546169,-18.0590723637728,0
65149990,HÖRGÁR4,Hörgárbyggð/Akureyrarkaupsstaður,65.7053422285238,-18.1557656395263,0
65149991,HÖRGÁR5,Hörgárbyggð/Akrahreppur,65.4685699959241,-18.7510044025615,0
65149992,HÖRGÁR6,Hörgárbyggð/Arnarneshreppur,65.759780466948,-18.2328696128929,0
66010001,SVALBA4,Svalbarðseyri,65.749465,-18.075727,0
66019990,SVALBAR,Svalbarðsstrandahreppur/Grýtubakkahreppur,65.8137595165432,-18.0390242679957,0
66019991,SVALBA2,Svalbarðsstrandahreppur/Eyjafjarðarsveit,65.6736895080342,-18.045769968877,0
66029990,GRÝTUBA,Grýtubakkahreppur/Þingeyjarsveit,65.8137264409539,-17.9932574599963,0
66029991,GRYTUBA,Grytubakkahreppur/Svalbarðsstrandahreppur,65.8024835873839,-18.0545609454221,0
66070001,REYKJAH,Reykjahlíð,65.642,-16.911,0
66070002,SKÚTUST,Skútustaðir,65.567,-17.029,0
66079990,SKÚTUS2,Skútustaðahreppur/Norðurþing,65.6234972494577,-16.1934422724112,0
66079991,SKÚTUS1,Skútustaðahreppur/Þingeyjarsveit,65.6242669718009,-17.2350394691333,0
66090001,AÐALDAL,Aðaldalsvegur,65.886061,-17.437669,0
66099990,AÐALDÆL,Aðaldælahreppur/Norðurþing,65.9521440174156,-17.4307691781619,0
66099991,AÐALDÆ1,Aðaldælahreppur/Þingeyjarsveit,65.8414349719318,-17.5095206185709,0
66119990,TJÖRNES,Tjörneshreppur/Norðurþing,66.0979058619045,-16.8648416444093,0
66119991,TJÖRNE1,Tjörneshreppur/Norðurþing,66.0821803735822,-17.3271466441935,0
66119993,TJÖRNE2,Tjörneshreppur/Norðurþing,66.08142767329,-17.3290031835154,0
66120001,FNJÓSKÁ,Fnjóskárbrú,65.7467,-17.912,0
66120002,NORÐAUS,Norðausturvegur,65.705251,-17.622566,0
66120003,FOSSHÓL,Fosshóll - Goðafoss,65.686,-17.539,0
66120004,LAUGAR,Laugar,65.720245,-17.376771,0
66129990,ÞINGEYJ,Þingeyjarsveit/Aðaldælahreppur,65.8418760163863,-17.5096770877478,0
66129991,ÞINGEY1,Þingeyjarsveit/Grýtubakkahreppur,65.8126362684506,-18.0026142867046,0
66129992,ÞINGEY2,Þingeyjarsveit/Skútustaðahreppur,65.6225126170793,-17.2334934689887,0
67069990,SVALBA1,Svalbarðshreppur/Langanesbyggð,66.1359907651383,-15.3972723455345,0
67069991,SVALBA3,Svalbarðshreppur/Norðurþing,66.2980323480157,-15.9839404447685,0
67090001,ÞÓRSHÖF,Þórshöfn,66.199427,-15.337647,0
67099991,LANGANE,Langanesbyggð/Svalbarðshreppur,66.1362275242484,-15.3981661009765,0
70007101,SEYÐIS1,Seyðisfjörður / Herðubreið,65.260099999999994,-14.0067,0
73007351,REYÐAR2,Reyðarfjörður / Fjarðarbyggðarhöllin,65.033900000000003,-14.2121,0
73007352,AUSTURV,Austurvegur / Barkur,65.031300000000002,-14.206799999999999,0
73007353,REYÐAR1,Reyðarfjörður / Molinn,65.0323,-14.2186,0
73007354,REYÐARF,Reyðarfjörður / Orkuskálinn,65.034400000000005,-14.2278,0
73007355,ALCOA F,Alcoa Fjarðaál,65.0327,-14.0969,0
73007356,ESKIFJÖ,Eskifjörður / Sundlaug,65.077299999999994,-14.035,0
73007357,ÞJÓNUST,Þjónustumiðstöð / Shell,65.075800000000001,-14.0221,0
73007358,STRAN10,Strandgata / Steinholt,65.066599999999994,-14.0038,0
73007359,ESKIFJ1,Eskifjörður / Valhöll,65.070800000000006,-14.0131,0
73007401,NORÐFJ2,Norðfjörður / Nesbakki,65.148499999999999,-13.667999999999999,0
73007402,NORÐFJ1,Norðfjörður / VA,65.148899999999998,-13.6785,0
73007403,MIÐSTRÆ,Miðstræti / Stekkjargata,65.148399999999995,-13.69,0
73007404,HAFNA14,Hafnarbraut / Gilsbakki,65.147900000000007,-13.6982,0
73007405,NORÐFJÖ,Norðfjörður / Orkan,65.147499999999994,-13.706899999999999,0
73007551,FÁSKRÚÐ,Fáskrúðsfjörður / Við kirkjugarð,64.934200000000004,-14.0281,0
73007552,FÁSKRÚ1,Fáskrúðsfjörður / Skólavegur,64.932100000000005,-14.019299999999999,0
73007553,FÁSKRÚ2,Fáskrúðsfjörður / Skrúður,64.929199999999994,-14.0076,0
73007554,SKÓLAV2,Skólavegur / Hólsstígur,64.927700000000002,-14.0015,0
73007555,FÁSKRÚ3,Fáskrúðsfjörður / Hafnargata v. Franska sp.,64.926400000000001,-14.0008,0
73007556,FÁSKRÚ4,Fáskrúðsfjörður / Búðavegur,64.9306,-14.0155,0
73007557,STÖÐVAR,Stöðvarfjörður / Brekkan - uppl. miðstöð,64.833,-13.8738,0
75097201,BORGARF,Borgarfjörður / Fjarðarborg,65.5274,-13.8172,0
76137601,BREIÐDA,Breiðdalsvík / Kaupfjelagið,64.7921,-14.0094,0
76177651,DJÚPIV1,Djúpivogur / Hótel Framtíð,64.656300000000002,-14.2807,0
76200001,NORÐAU1,Vopnafjörður - Vegamót,65.459261,-15.50708,0
76200002,SKJÖLDÓ,Skjöldólfsstaðir,65.31667,-15.1163,0
76200003,FELLABÆ,Fellabær / Olís,65.2825,-14.4257,0
76200005,EGILSS5,Egilsstaðir / Tjaldsvæðið,65.2587083533151,-14.4069628003902,0
76207002,EGILSS4,Egilsstaðir / Flugvöllur,65.274799999999999,-14.4062,0
76207003,EGILSS3,Egilsstaðir / Hamragerði,65.256100000000004,-14.4129,0
76207005,EGILSS1,Egilsstaðir / Íþróttamiðstöð,65.266800000000003,-14.3965,0
76207006,ÁRSSKÓG,Ársskógar / Dalskógar,65.264799999999994,-14.386900000000001,0
76207007,EGILSST,Egilsstaðir / Selbrekka v. Sey.fj.veg,65.260000000000005,-14.389099999999999,0
76209990,FLJÓTSD,Fljótsdalshérað/Norðurþing,65.571410150928,-16.0431804104424,0
77080001,HÖFN Í ,Höfn í Hornafirði,64.254227,-15.207482,0
77080002,FREYSNE,Freysnes,63.990386,-16.893033,0
77080003,SKAFTAF,Skaftafell,64.015611,-16.965545,0
77080004,SKAFTA1,Skaftafell,64.015599,-16.9654,0
77080005,FREYSN1,Freysnes,63.990355,-16.893124,0
77080006,HÖFN Í1,Höfn í Hornafirði,64.252844,-15.211664,0
77080007,JÖKULSÁ,Jökulsárlón,64.046076,-16.177622,0
77080008,JÖKULS1,Jökulsárlón,64.046031,-16.177135,0
77087801,HÖFN / ,Höfn / Flugvöllur,64.302199999999999,-15.2262,0
77089990,SVEITAF,Sveitafél. Hornafjörður/Skaftárhreppur,63.9361407219633,-17.3118001520786,0
80000001,LANDEYJ,Landeyjahöfn,63.5323020405119,-20.1197098339123,0
80009990,VESTMAN,Vestmannaeyjar/Rangárþing eystra,63.5257890707908,-20.1189703776178,0
82000001,FOSSNES,Selfoss - N1,63.937021999999999,-20.987521999999998,0
82000002,TRYGGVA,Ráðhúsið,63.937351,-21.001897,0
82000003,OLÍS / ,OLÍS Selfossi,63.943483999999998,-21.008141999999999,0
82000004,ORKAN /,OLÍS Selfossi,63.943386,-21.008523,0
82000005,TRYGGV1,Ráðhúsið,63.937271000000003,-21.001902000000001,0
82000006,FSU1,FSU,63.932287,-20.999224,0
82000007,FSU,FSU,63.932158,-20.999297,0
82000008,TRYGGV4,Tryggvagata / Suðurengi,63.926847,-20.999575,0
82000009,SUNNULÆ,Sunnulækjarskóli,63.926157,-20.994187,0
82000010,ERLURIM,Erlurimi / Sílatjörn,63.928054,-20.991604,0
82000011,VALLAS1,Vallaskóli,63.933829,-20.995979,0
82000012,SUNDHÖL,Sundhöll,63.935726,-20.998903,0
82000013,SUNDHÖ1,Sundhöll,63.935719,-20.998998,0
82000014,HÚSASMI,Húsasmiðjan,63.932257,-21.015843,0
82000015,EYRARVE,Eyrarvegur / Lágheiði,63.931925,-21.016417,0
82000016,SANDVÍK,Sandvíkurbæir,63.911659,-21.053337,0
82000017,SANDVÍ1,Sandvíkurbæir,63.911587,-21.053372,0
82000018,TJARNAR,Tjarnarbyggð,63.89266,-21.076469,0
82000019,TJARNA1,Tjarnarbyggð,63.892595,-21.076437,0
82000020,EYRARBR,Eyrarbraut / Eyjasel,63.838602,-21.070039,0
82000021,HÁSTEIN,Hásteinsvegur / Stjörnusteinar,63.8367,-21.062546,0
82000022,HÁSTEI1,Hásteinsvegur / Ólafsvellir,63.832863,-21.05072,0
82000023,BALDURS,Baldurshagi,63.8324,-21.045467,0
82000024,HÁSTEI2,Hásteinsvegur / Strandgata,63.834397,-21.058756,0
82000025,EYRARB1,Eyrarbraut / Eyjasel,63.838655,-21.070147,0
82000026,HAFNA12,Hafnarbrú,63.866803,-21.16298,0
82000027,BÚÐARS1,Búðarstígur,63.864845,-21.157722,0
82000028,EYRARG1,Eyrargata,63.862126,-21.14676,0
82000029,HÁEYRA1,Háeyrarvellir,63.860717,-21.142391,0
82000030,BARNAS1,Barnaskólinn Eyrarbakka,63.858538,-21.133986,0
82000031,BARNASK,Barnaskólinn Eyrarbakka,63.858568,-21.134009,0
82000032,HÁEYRAR,Háeyrarvellir,63.860743,-21.142406,0
82000033,EYRARGA,Eyrargata,63.86217,-21.146845,0
82000034,BÚÐARST,Búðarstígur,63.864875,-21.157745,0
82000035,HAFNARB,Hafnarbrú,63.866768,-21.16297,0
82000036,VALLASK,Vallaskóli,63.933871,-20.995996,0
82000037,LANGHO7,Langholt / Larensstræti,63.937481061979597,-20.9790163141965,0
82000038,LANGHO8,Langholt / Larensstræti,63.937487,-20.978881,0
82000039,LITLA-H,Litla-Hraun,63.860568611069098,-21.1290119338803,0
82000040,LITLA-1,Litla-Hraun,63.860586305707898,-21.1290657686747,0
82000041,BARNAS2,Barnaskólinn Stokkseyri,63.8374936404431,-21.065082799988101,0
82000042,EYRARV1,Eyravegur / Kirkjuvegur,63.936383,-21.00682,0
82000043,EYRARV2,Eyravegur / Kirkjuvegur,63.936319999651801,-21.006666020836001,0
82009990,ÁRBORG/,Árborg/Hveragerði,63.9516462906502,-21.0275597997904,0
82009991,ÁRBORG1,Árborg/Flóahreppur,63.9391298522365,-20.9707229006478,0
82009992,ÁRBORG2,Árborg/Ölfus,63.8792263719704,-21.2097699052552,0
85080001,VÍK Í M,Vík í Mýrdal,63.418369,-19.003165,0
85080002,VÍK Í 1,Vík í Mýrdal,63.418279,-19.003218,0
85089990,MÝRDALS,Mýrdalshreppur/Rangarthing eystra,63.4811508225832,-19.3116471378762,0
85089991,MÝRDAL1,Mýrdalshreppur/Skaftárhreppur,63.437678916386,-18.8346289682031,0
85090001,KIRKJU5,Kirkjubæjarklaustur,63.793636,-18.038705,0
85090002,KIRKJU6,Kirkjubæjarklaustur,63.793694,-18.03875,0
85099990,SKAFTÁR,Skaftárhreppur/Mýrdalshreppur,63.4383752643794,-18.787236070409,0
85099991,SKAFTÁ1,Skaftárhreppur/Sveitafél. Hornafjarðar,63.9409870877013,-17.3554067782143,0
86109990,ÁSAHREP,Ásahreppur/Rangárþing ytra,63.8954206807912,-20.5635219054889,0
86109991,ÁSAHRE1,Ásahreppur/Flóahreppur,63.9298499916866,-20.6653322661091,0
86130001,HVOLSVÖ,Hvolsvöllur,63.749494,-20.23306,0
86130002,HVOLSV1,Hvolsvöllur,63.749747,-20.232882,0
86130003,SKÓGAR,Skógar,63.524103,-19.504503,0
86130004,SKÓGA16,Skógar,63.524049,-19.504596,0
86139990,RANGART,Rangárþing eystra/Vestmannaeyjar,63.5302956100256,-20.1197098339122,0
86139991,RANGAR1,Rangarthing eystra/Rangárþing ytra,63.7768765431882,-20.280483124531,0
86139992,RANGAR2,Rangarthing eystra/Mýrdalshreppur,63.5038358698207,-19.4217664447772,0
86140001,HELLA2,Hella,63.834862,-20.401652,0
86140002,HELLA1,Hella,63.834994,-20.401563,0
86149990,RANGÁRÞ,Rangárþing ytra/Rangárþing eystra,63.7938385975365,-20.3085244477874,0
86149991,RANGÁR2,Rangárþing ytra/Ásahreppur,63.9025589706231,-20.5895238497746,0
87100001,FLÚÐIR1,Flúðir,64.1308641273949,-20.3214083190065,0
87109990,HRUNAMA,Hrunamannahreppur/Bláskógabyggð,64.1320084393271,-20.322627610692,0
87109991,HRUNAM1,Hrunamannahreppur/Skeiða- og Gnúpverjahr.,64.1279051628291,-20.3165990877923,0
87160001,HVERAGE,Shell Hveragerði,63.995477,-21.184366,0
87160002,HVERAG3,Shell Hveragerði,63.995464,-21.184515,0
87169990,HVERAG1,Hveragerði/Reykjavík,64.0630091249463,-21.5529781704477,0
87169991,HVERAG2,Hveragerði/Árborg,63.9527243221026,-21.0318446866465,0
87170001,ÞORLÁKS,Þorlákshöfn,63.856668,-21.383841,0
87179991,ÖLFUS/G,Ölfus/Grímsnes og Grafningshreppur,63.9978611472238,-20.9830171806162,0
87179992,ÖLFUS/Á,Ölfus/Árborg,63.8794185944141,-21.2086045536481,0
87179993,ÖLFUS/R,Ölfus/Reykjavík,64.0601363249792,-21.5485074383379,0
87190001,BORG Í ,Borg í Grímsnesi,64.0746664731188,-20.7643082216857,0
87190003,ÞRASTAR,Þrastarskógur,64.01444,-20.949087,0
87190004,ÞÓRODDS,Þóroddsstaðir,64.119065,-20.708499,0
87190005,ÞÓRODD1,Þóroddsstaðir,64.119199,-20.708822,0
87199990,GRÍMSNE,Grímsnes og Grafningahr./Bláskógabyggð,64.1439690076711,-20.5611957793347,0
87199991,GRÍMSN1,Grímsnes og Grafningahr./Ölfus,64.0027704043058,-20.9787690707742,0
87200001,BRAUTAR,Brautarholt,64.023167,-20.521894,0
87200002,VEGAMÓ9,Skeiða- og Þjórsárdalsvegur,64.046013,-20.411393,0
87200003,ÁRNES,Árnes,64.042444,-20.251885,0
87209990,SKEIÐA-,Skeiða- og Gnúpverjahr./Hrunamannahreppur,64.0430070543774,-20.4227916558126,0
87209991,SKEIÐA8,Skeiða- og Gnúpverjahr./Flóahreppur,63.9839598884465,-20.5788844000024,0
87210001,REYKHOL,Reykholt,64.177459,-20.453062,0
87210002,LAUGARÁ,Laugarás,64.112901,-20.503891,0
87210003,LAUGAVA,Laugarvatn,64.220175,-20.732191,0
87219990,BLÁSKÓG,Bláskógabyggð/Hrunamannahreppur,64.1558300988492,-20.3624872211755,0
87219991,BLÁSKÓ1,Bláskógabyggð/Grímsnes og Grafningahr.,64.1435011836195,-20.5627439197891,0
87229990,FLÓAHRE,Flóahreppur/Ásahreppur,63.9299149159401,-20.6653340689006,0
87229991,FLÓAHR1,Flóahreppur/Árborg,63.9392003390188,-20.9692209148299,0
87229992,FLÓAHR2,Flóahreppur/Skeiða- og Gnúpverjahr.,63.9629450928172,-20.6357755124237,0
90000003,SKOTHÚS,Fríkirkjuvegur,64.143101000000001,-21.940087999999999,0
90000004,LÆKJARG,Menntaskólinn í Reykjavík / MR,64.146477000000004,-21.937258,0
90000006,UMFERÐA,Umferðarmiðstöðin (BSÍ),64.137099,-21.933662,0
90000007,UMFERÐ1,Umferðarmiðstöðin (BSÍ),64.137941598162499,-21.9339090580538,0
90000009,HÓTEL L,Nauthólsvegur,64.130841000000004,-21.929604000000001,0
90000011,SNORRA1,Snorrabraut,64.138750000000002,-21.921420000000001,0
90000013,MIKLAB7,Kringlan,64.131921000000006,-21.889215,0
90000015,KRINGL1,Kringlan,64.130009000000001,-21.900466999999999,0
90000016,KRINGL3,Kringlan,64.129587999999998,-21.899836000000001,0
90000018,VESTURL,Ártún,64.123754000000005,-21.821591000000002,0
90000019,VESTUR1,Ártún,64.124213999999995,-21.822106999999999,0
90000020,GRANDAG,Grandi,64.155814000000007,-21.941402,0
90000021,GRANDA1,Grandagarður,64.153042999999997,-21.951070000000001,0
90000022,MÝRARGA,Mýrargata,64.151381000000001,-21.948571000000001,0
90000029,KLETTA2,Klettagarðar / Skarfagarðar,64.153822000000005,-21.869633,0
90000030,LAUGAVE,Þjóðskjalasafnið,64.142627000000005,-21.90634,0
90000031,LAUGAV1,Gamla sjónvarpshúsið,64.140660999999994,-21.896675999999999,0
90000032,SUÐURLA,Nordica,64.140141999999997,-21.887948000000002,0
90000033,SUÐURL1,Laugardalshöll,64.138023000000004,-21.877569999999999,0
90000034,SUÐURL2,Orkuhúsið,64.135553000000002,-21.873334,0
90000036,KRINGL5,Teigar,64.144585000000006,-21.892053000000001,0
90000037,KRINGL6,Tún,64.143826000000004,-21.892754,0
90000038,SKEIÐAR,Fen,64.129480999999998,-21.863616,0
90000039,SKEIÐA1,Mörkin,64.129536999999999,-21.863101,0
90000040,SKEIÐA6,Nökkvavogur,64.132948999999996,-21.855219999999999,0
90000041,SKEIÐA2,Glæsibær,64.133503000000005,-21.869105000000001,0
90000042,SKEIÐA3,Glæsibær,64.132638999999998,-21.868289000000001,0
90000044,GNOÐARV,Gnoðarvogur / Ljósheimar,64.13203,-21.863386999999999,0
90000045,GNOÐAR3,Glæsibær,64.133900999999994,-21.867151,0
90000046,SUÐURL3,Orkuhúsið,64.136435000000006,-21.874203000000001,0
90000047,SUÐURL4,Laugardalshöll,64.139195999999998,-21.879543000000002,0
90000048,SUÐURL5,Nordica,64.140316999999996,-21.889824000000001,0
90000049,LAUGAV2,Hátún,64.141194999999996,-21.898187,0
90000050,LAUGAV3,Fíladelfía,64.142926,-21.907164,0
90000051,KLETTAG,Klettagarðar / Skarfagarðar,64.153716000000003,-21.869696000000001,0
90000055,LÆKJAR5,Lækjartorg,64.147464999999997,-21.936230999999999,0
90000056,VONARST,Ráðhúsið,64.146559999999994,-21.942413999999999,0
90000057,VONARS1,Ráðhúsið,64.146261999999993,-21.941607000000001,0
90000061,MÝRARG1,Mýrargata,64.151683000000006,-21.949006000000001,0
90000062,GRANDA2,Grandagarður,64.153109000000001,-21.949784000000001,0
90000063,GRUNNSL,Grunnslóð,64.154464000000004,-21.947669000000001,0
90000064,FISKISL,Fiskislóð,64.155849000000003,-21.945205000000001,0
90000068,STEKKJA,Stekkjarbakki,64.107754999999997,-21.841087000000002,0
90000069,ARNARBA,Arnarbakki,64.104746000000006,-21.835345,0
90000071,RANGÁRS,Rangársel,64.098157999999998,-21.846830000000001,0
90000072,RANGÁR1,Rangársel,64.098067999999998,-21.846626000000001,0
90000073,ARNARB4,Eyjabakki,64.110277999999994,-21.828901999999999,0
90000074,ARNARB5,Dvergabakki,64.110315,-21.834713000000001,0
90000075,MJÓDD,Mjódd,64.109701999999999,-21.842642999999999,0
90000076,BÚSTAÐ9,Víkin,64.120518000000004,-21.854944,0
90000077,BÚSTA10,Bústaðakirkja,64.120818999999997,-21.860312,0
90000078,BÚSTA11,Ásgarður Fossvogi,64.121407000000005,-21.865542999999999,0
90000079,BÚSTA12,Grímsbær,64.122631999999996,-21.876021999999999,0
90000080,BÚSTAÐ4,Furugerði,64.123416000000006,-21.883334000000001,0
90000081,BÚSTAÐ5,Borgarspítalinn,64.124171000000004,-21.888175,0
90000083,HÁALEI3,RÚV,64.125810999999999,-21.888448,0
90000084,HÁALEI1,RÚV,64.125855000000001,-21.887882999999999,0
90000085,GNOÐAR1,Glæsibær,64.133968999999993,-21.866965,0
90000086,HÁALEI5,Fellsmúli,64.131416000000002,-21.883033000000001,0
90000087,HÁALEI6,Miðbær,64.133427999999995,-21.882667999999999,0
90000088,HÁALEI7,Háaleitisbraut / Múlar,64.136689000000004,-21.887231,0
90000089,HÁALEI8,Lágmúli,64.137862999999996,-21.891022,0
90000090,HÁTEIG2,Háteigsvegur / Skipholt,64.137293999999997,-21.898216000000001,0
90000091,HÁTEIG3,Háteigskirkja,64.138126999999997,-21.904177000000001,0
90000092,HÁTEIGS,Háteigsvegur / Langahlíð,64.138844000000006,-21.909261999999998,0
90000093,RAUÐARÁ,Rauðarárstígur,64.140247000000002,-21.915137999999999,0
90000094,SUÐURG6,Þjóðminjasafnið,64.142291,-21.949048999999999,0
90000096,MEISTAR,Meistaravellir / Grandavegur,64.147909999999996,-21.960201000000001,0
90000097,MEISTA1,Meistaravellir / Flyðrugrandi,64.147192000000004,-21.963691000000001,0
90000098,KAPLASK,KR,64.146040999999997,-21.965254999999999,0
90000099,KAPLAS1,Kaplaskjólsvegur / Ægisíða,64.144987,-21.969866,0
90000114,NESVEG6,Kaplaskjól,64.144683000000001,-21.97099,0
90000115,KAPLAS2,KR,64.146022000000002,-21.96482,0
90000116,MEISTA2,Meistaravellir,64.147147000000004,-21.963372,0
90000117,MEISTA3,Meistaravellir / Grandavegur,64.147845000000004,-21.959979000000001,0
90000119,RAUÐAR1,Rauðarárstígur,64.140139000000005,-21.915417000000001,0
90000120,HÁTEIG1,Háteigsvegur / Langahlíð,64.138605999999996,-21.908553000000001,0
90000121,HÁTEIG5,Háteigskirkja,64.137991999999997,-21.903821000000001,0
90000122,HÁTEIG4,Háteigsvegur / Bólstaðarhlíð,64.137244999999993,-21.898561999999998,0
90000124,HÁALE13,Háaleitisbraut / Lágmúli,64.137737000000001,-21.891639999999999,0
90000125,HÁALE12,Háaleitisbraut / Mýri,64.136178999999998,-21.887205000000002,0
90000126,HÁALE11,Miðbær,64.133848,-21.883876999999998,0
90000127,HÁALE10,Fellsmúli,64.131478000000001,-21.883642999999999,0
90000129,SELÁSB4,Selásbraut / Þverás,64.102915999999993,-21.783691999999999,0
90000132,BÚSTAÐ8,Borgarspítalinn,64.123796999999996,-21.886690000000002,0
90000133,BÚSTAÐ7,Eyrarland,64.123012000000003,-21.881727999999999,0
90000134,BÚSTA16,Grímsbær,64.122275000000002,-21.874306000000001,0
90000135,BÚSTA15,Ásgarður Fossvogi,64.121174999999994,-21.864595999999999,0
90000136,BÚSTA14,Bústaðakirkja,64.120459999999994,-21.858523000000002,0
90000137,BÚSTA13,Víkin,64.120418000000001,-21.852499000000002,0
90000138,REYKJAN,Blesugróf,64.117293000000004,-21.844929,0
90000139,ARNARB2,Dvergabakki,64.110214999999997,-21.834441999999999,0
90000140,ARNARB3,Eyjabakki,64.110163999999997,-21.828050000000001,0
90000141,SUÐURH1,Hólabrekkuskóli,64.108001999999999,-21.817554999999999,0
90000142,SOGAVE6,Sogavegur / Bústaðavegur,64.120923000000005,-21.853695999999999,0
90000143,SOGAVE5,Sogavegur / Bústaðavegur,64.120937999999995,-21.853898000000001,0
90000144,ARNARB1,Arnarbakki / Leirubakki,64.104906999999997,-21.835332999999999,0
90000145,STEKKJ1,Stekkjarbakki,64.108241000000007,-21.840572000000002,0
90000146,HÁALEIT,Borgarspítali,64.123007000000001,-21.8916,0
90000148,HÁDEGIS,Hádegismóar,64.113864000000007,-21.776368000000002,0
90000150,SOGAVE1,Sogavegur / Grundargerði,64.127955999999998,-21.870843000000001,0
90000151,REYKJA8,Elliðaárdalur,64.118983999999998,-21.845509,0
90000154,BÆJARH5,Bæjarháls,64.120681000000005,-21.808814000000002,0
90000155,SÆBRAU6,Vogar,64.134956000000003,-21.849685000000001,0
90000156,SÆBRAU5,Holtagarðar,64.141338000000005,-21.850282,0
90000157,SÆBRAU4,Sæbraut / Sægarðar,64.143242000000001,-21.852083,0
90000158,BARÐAST,Barðastaðir,64.156867000000005,-21.750616999999998,0
90000159,KLEPPUR,Sæbraut / Sægarðar,64.142990999999995,-21.852385000000002,0
90000160,SUNDAGA,Sundagarðar,64.150577999999996,-21.871116000000001,0
90000161,SOGAVEG,Sogavegur / Akurgerði,64.128536999999994,-21.874255999999999,0
90000162,KLEPPSV,Laugarnestangi,64.151443,-21.882252000000001,0
90000163,LAUGAR4,Kirkjusandur,64.149201000000005,-21.884996000000001,0
90000164,LAUGAR3,Laugarnesvegur / Borgartún,64.146968000000001,-21.888725999999998,0
90000165,BORGAR3,Hótel Cabin,64.146184000000005,-21.896419999999999,0
90000167,HOFSVAL,Hofsvallagata / Hávallagata,64.147752999999994,-21.951418,0
90000168,HOFSVA1,Hofsvallagata / Hringbraut,64.146702000000005,-21.954384000000001,0
90000169,HOFSVA5,Hofsvallagata / Reynimelur,64.145408000000003,-21.958062999999999,0
90000170,HOFSVA4,Hagi,64.143855000000002,-21.962456,0
90000171,NESHAG1,Melaskóli,64.142178999999999,-21.958518999999999,0
90000172,HJARÐA3,Hjarðarhagi / Vesturgarður,64.141748000000007,-21.961682,0
90000173,HJARÐA2,Hjarðarhagi / Dunhagi,64.138790999999998,-21.958537,0
90000174,NJARÐAR,Íslensk Erfðagreining,64.135388000000006,-21.944293999999999,0
90000175,NJARÐA1,Íslensk Erfðagreining,64.135558000000003,-21.943653000000001,0
90000176,HOFSVA6,Hofsvallagata / Ægisíða,64.142610000000005,-21.965501,0
90000177,NJARÐA2,Reykjavíkurflugvöllur,64.132627999999997,-21.949452999999998,0
90000178,NJARÐA3,Reykjavíkurflugvöllur,64.132694999999998,-21.949186999999998,0
90000179,HOFSVA3,Hofsvallagata / Hringbraut,64.146711999999994,-21.954029999999999,0
90000180,HOFSVA2,Hofsvallagata / Hávallagata,64.147682000000003,-21.951281000000002,0
90000182,BORGAR1,Hótel Cabin,64.146084999999999,-21.895788,0
90000183,LAUGARN,Laugarnesvegur / Borgartún,64.146955000000005,-21.888466999999999,0
90000184,LAUGAR1,Laugarnesvegur / Kirkjusandur,64.149219000000002,-21.884687,0
90000185,LAUGAR2,Laugarnestangi,64.150977999999995,-21.882624,0
90000187,DALBRAU,Dalbraut,64.150644,-21.875004000000001,0
90000188,HRAFNI1,Hrafnista,64.149017999999998,-21.867405999999999,0
90000190,BAKKAST,Bakkastaðir / Barðastaðir,64.158095000000003,-21.751086999999998,0
90000191,SÆBRAU2,Sund,64.140213000000003,-21.850695999999999,0
90000192,BÆJARH6,Hamrahlíð,64.130847000000003,-21.902054,0
90000193,SÆBRAU3,Vogar,64.133594000000002,-21.850186999999998,0
90000198,STRAUM1,Straumur / Birtingakvísl,64.123307,-21.822564,0
90000200,SKELJAN,Skeljanes,64.126020999999994,-21.949149999999999,0
90000201,SKELJA1,Skeljanes / Bauganes,64.128043000000005,-21.946857999999999,0
90000202,SKELJA2,Skeljanes / Bauganes,64.128020000000006,-21.947071000000001,0
90000203,EINARSN,Einarsnes / Bauganes,64.130487000000002,-21.953125,0
90000204,ÞORRAG1,Þorragata,64.132767000000001,-21.952677999999999,0
90000205,ÞORRAGA,Þorragata,64.132907000000003,-21.953046000000001,0
90000206,SUÐURGA,Skerjagarðar,64.135620000000003,-21.956061999999999,0
90000207,SUÐURG1,Stúdentagarðar,64.137293,-21.954183,0
90000208,HJARÐA1,Hjarðarhagi / Vesturgarður,64.141752999999994,-21.961425999999999,0
90000209,HAGATOR,Hótel Saga,64.141204999999999,-21.954021999999998,0
90000210,BIRKIM2,Þjóðarbókhlaðan,64.143519999999995,-21.951141,0
90000211,HÉÐINS1,Héðinsgata,64.152135000000001,-21.881371000000001,0
90000212,BORGART,Höfðatorg,64.145206999999999,-21.907354999999999,0
90000213,SUNDLAU,Laugardalslaug,64.146651000000006,-21.879681000000001,0
90000214,BRÚNAVE,Brúnavegur / Laugarásvegur,64.146765000000002,-21.872312999999998,0
90000215,AUSTUR2,Hrafnista,64.146572000000006,-21.866614999999999,0
90000216,AUSTUR3,Austurbrún / Dragavegur,64.145149000000004,-21.864176,0
90000217,AUSTUR4,Austurbrún / Hólsvegur,64.143991,-21.864578000000002,0
90000218,LANGHOL,Langholtsvegur / Hólsvegur,64.142426,-21.860592,0
90000219,LANGHO1,Sunnutorg,64.141076999999996,-21.861325999999998,0
90000220,LANGHO2,Langholtsvegur / Holtavegur,64.138677000000001,-21.859358,0
90000221,LANGHO3,Langholtskirkja,64.136089999999996,-21.856742000000001,0
90000222,SKEIÐA4,Skeiðarvogur / Langholtsvegur,64.133346000000003,-21.854507999999999,0
90000223,SKEIÐA5,Menntaskólinn við Sund / MS,64.131214,-21.861474999999999,0
90000224,GRENSÁS,Grensásvegur / Ármúli,64.132621999999998,-21.873460999999999,0
90000225,GRENSÁ1,Grensás,64.130303999999995,-21.875174999999999,0
90000226,SUÐURG4,Háskóli Íslands,64.140343999999999,-21.950761,0
90000227,SUÐURG5,Þjóðminjasafnið,64.142334000000005,-21.948415000000001,0
90000228,SOGAVE2,Sogavegur / Háagerði,64.126182,-21.864211000000001,0
90000229,SOGAVE3,Sogavegur / Borgargerði,64.124852000000004,-21.859741,0
90000230,SOGAVE4,Sogavegur / Tunguvegur,64.122957,-21.855559,0
90000231,HÁALEI2,Borgarspítali,64.123247000000006,-21.891514999999998,0
90000232,SLÉTTUV,Sléttuvegur,64.123625000000004,-21.894418999999999,0
90000233,HJARÐAR,Hjarðarhagi / Dunhagi,64.138760000000005,-21.957975000000001,0
90000234,SOGAVE7,Sogavegur / Tunguvegur,64.123034000000004,-21.855433000000001,0
90000235,SOGAVE8,Sogavegur / Borgargerði,64.124973999999995,-21.859756000000001,0
90000236,SOGAVE9,Sogavegur / Háagerði,64.126677000000001,-21.865428999999999,0
90000237,SOGAV10,Sogavegur / Grundargerði,64.128128000000004,-21.871257,0
90000238,SOGAV11,Sogavegur / Akurgerði,64.128591,-21.874015,0
90000239,GRENSÁ5,Grensás,64.130322000000007,-21.874594999999999,0
90000240,GRENSÁ4,Grensásvegur / Skeifan,64.133196,-21.872544,0
90000241,GNOÐAR2,Gnoðarvogur / Ljósheimar,64.131991999999997,-21.863696000000001,0
90000242,SKEIÐA7,Menntaskólinn við Sund / MS,64.131254999999996,-21.860710000000001,0
90000243,LANGHO6,Langholtskirkja,64.136089999999996,-21.856421000000001,0
90000244,LANGHO5,Langholtsvegur / Holtavegur,64.138972999999993,-21.859317000000001,0
90000245,LANGHO4,Sunnutorg,64.141084000000006,-21.861124,0
90000246,SUÐURG7,Háskólabíó,64.139741000000001,-21.951910999999999,0
90000247,AUSTUR7,Austurbrún / Hólsvegur,64.143486999999993,-21.864643000000001,0
90000248,AUSTUR6,Austurbrún / Dragavegur,64.145522999999997,-21.863876000000001,0
90000249,AUSTUR5,Hrafnista,64.146758000000005,-21.867253000000002,0
90000250,BRÚNAV1,Sundlaugarvegur / Laugarásvegur,64.146877000000003,-21.873929,0
90000251,SUNDLA1,Laugardalslaug,64.146805999999998,-21.879884000000001,0
90000252,BORGAR2,Höfðatorg,64.145431000000002,-21.908256999999999,0
90000253,HÉÐINSG,Héðinsgata,64.152190000000004,-21.880973000000001,0
90000254,BIRKIME,Þjóðarbókhlaðan,64.143484999999998,-21.951391999999998,0
90000255,BIRKIM1,Hagatorg,64.142185999999995,-21.953468999999998,0
90000256,SUÐURG3,Suðurgata / Hjarðarhagi,64.137371000000002,-21.954611,0
90000257,SUÐURG2,Skerjagarðar,64.135383000000004,-21.956831999999999,0
90000258,EINARS1,Einarsnes / Bauganes,64.130375999999998,-21.952942,0
90000259,FLÓKAG3,Kjarvalsstaðir,64.138238999999999,-21.911937000000002,0
90000260,STRAUMU,Straumur / Nethylur,64.122247999999999,-21.814985,0
90000261,STRAUM2,Straumur / Birtingakvísl,64.123417000000003,-21.822095999999998,0
90000262,GULLIN1,Gullinbrú,64.132431999999994,-21.814488000000001,0
90000263,FLÓKAG2,Kjarvalsstaðir,64.138356999999999,-21.912098,0
90000264,KRISTN4,Ingunnarskóli,64.126644999999996,-21.757383000000001,0
90000265,KRISTN3,Kristnibraut / Prestastígur,64.126738000000003,-21.750591,0
90000266,GVENDA1,Gvendargeisli / Þórðarsveigur,64.126209000000003,-21.743942000000001,0
90000267,HÁALEI9,Austurver,64.127986000000007,-21.886471,0
90000268,LISTABR,Borgarleikhús,64.128443000000004,-21.895755000000001,0
90000269,GVENDA3,Gvendargeisli / Sæmundarsel,64.125862999999995,-21.739941999999999,0
90000270,HAMRAHL,Menntaskólinn við Hamrahlíð / MH,64.131308000000004,-21.907267999999998,0
90000271,LANGAHL,Langahlíð / Mávahlíð,64.133427999999995,-21.911563000000001,0
90000272,LANGAH1,Langahlíð,64.135536999999999,-21.909839999999999,0
90000273,LANGAH2,Flókagata,64.137355999999997,-21.908407,0
90000274,NESHAGI,Melaskóli,64.142334000000005,-21.958472,0
90000275,ÆGISSÍÐ,Ægisíða / Hofsvallagata,64.143521000000007,-21.966996000000002,0
90000276,NESVEGU,Kaplaskjól,64.144942,-21.97167,0
90000277,EIÐISGR,Öldugrandi,64.150563000000005,-21.981538,0
90000278,EIÐISG3,Seilugrandi,64.149861000000001,-21.976382000000001,0
90000279,EIÐISG2,Keilugrandi,64.149580999999998,-21.971682000000001,0
90000280,EIÐISG1,Boðagrandi,64.149894000000003,-21.967355000000001,0
90000281,HRINGB6,JL húsið,64.150306,-21.959982,0
90000282,LANGAH5,Flókagata,64.137407999999994,-21.908802999999999,0
90000283,LANGAH4,Langahlíð,64.135504999999995,-21.910371999999999,0
90000284,LANGAH3,Langahlíð / Mávahlíð,64.133426,-21.911883,0
90000285,HAMRAH1,Menntaskólinn við Hamrahlíð / MH,64.131193999999994,-21.90699,0
90000286,HAMRAH2,Hamrahlíð,64.130705000000006,-21.901821000000002,0
90000287,LISTAB1,Verzló,64.128162000000003,-21.895202999999999,0
90000288,HÁALEI4,Austurver,64.128950000000003,-21.885133,0
90000289,ÞÚSÖLD1,Þúsöld,64.128636999999998,-21.767074000000001,0
90000290,KRISTN5,Kristnibraut / Maríubaugur,64.127098000000004,-21.765626999999999,0
90000291,BAKKAS1,Kelduskóli / Korpa,64.157482999999999,-21.755441999999999,0
90000292,SNORRAB,Snorrabraut,64.138481999999996,-21.921249,0
90000293,ÞÚSÖLD2,Þúsöld / Húsasmiðjan,64.130264999999994,-21.762504,0
90000294,ÞÚSÖLD3,Þúsöld / Húsasmiðjan,64.130176000000006,-21.762267000000001,0
90000295,HLEMMUR,Hlemmur,64.143253000000001,-21.914211000000002,0
90000296,HRINGBR,Háskóli Íslands,64.141782000000006,-21.946535000000001,0
90000297,HRINGB1,BSÍ,64.138249000000002,-21.932939999999999,0
90000298,HRINGB2,Landspítalinn,64.137377000000001,-21.927222,0
90000299,KRÓKHÁ6,Krókháls / Suðurlandsvegur,64.121986000000007,-21.782738999999999,0
90000301,BÚSTAÐ3,Perlan,64.130144999999999,-21.914348,0
90000302,BÚSTAÐ2,Veðurstofan,64.126990000000006,-21.907185999999999,0
90000303,RAFSTÖÐ,Rafstöðvarvegur,64.123937999999995,-21.840328,0
90000304,FYLKISV,Fylkisvegur,64.114242000000004,-21.790704000000002,0
90000305,FYLKIS1,Fylkisvegur,64.114279999999994,-21.790483999999999,0
90000306,STÓRH11,Stórhöfði / Breiðhöfði,64.128770000000003,-21.823604,0
90000307,STÓRH10,Krókháls / Suðurlandsvegur,64.121966,-21.782288999999999,0
90000308,STÓRHÖ9,Stórhöfði / Höfðabakki,64.128907999999996,-21.814619,0
90000311,KRÓKHÁ5,Krókháls / Hálsabraut,64.121526000000003,-21.795499,0
90000312,KRÓKHÁ4,Krókháls / Stuðlaháls,64.121594000000002,-21.790838999999998,0
90000315,HRAUNSÁ,Hraunsás,64.113179000000002,-21.788440999999999,0
90000316,ROFABÆ7,Rofabær / Brekkubær,64.115510999999998,-21.791777,0
90000317,ROFABÆ6,Árbæjarskóli,64.116201000000004,-21.796686000000001,0
90000318,ROFABÆ5,Rofabær / Hábær,64.116902999999994,-21.801745,0
90000319,ROFABÆ4,Rofabær / Hraunbær,64.117902000000001,-21.808532,0
90000320,HRAUNB1,Hraunbær,64.119823999999994,-21.807887000000001,0
90000321,BÍLDSH3,Norðlingabraut / Helluvað,64.102624000000006,-21.766770999999999,0
90000322,BUGÐA,Bugða / Kambavað,64.100786999999997,-21.765827000000002,0
90000323,ELLIÐA3,Elliðabraut / Bugða,64.097712000000001,-21.779661000000001,0
90000324,BÚSTAÐ6,Leiti,64.125434999999996,-21.896737999999999,0
90000325,BÚSTAÐA,Veðurstofan,64.127258999999995,-21.907243000000001,0
90000326,BÚSTAÐ1,Perlan,64.130236999999994,-21.913789000000001,0
90000327,EINARS3,Einarsnes,64.129536000000002,-21.949618999999998,0
90000329,EINARS2,Einarsnes,64.129624000000007,-21.949739000000001,0
90000330,HRINGB3,Landspítalinn,64.137559999999993,-21.927844,0
90000331,HRINGB4,BSÍ,64.138581000000002,-21.934487000000001,0
90000332,HRINGB5,Háskóli Íslands,64.142219999999995,-21.946825,0
90000333,NAUTHÓL,Nauthóll - HR,64.124713,-21.927987999999999,0
90000334,STÓRHÖ3,Stórhöfði / Höfðabakki,64.129026999999994,-21.814546,0
90000335,STÓRHÖ4,Bugða / Lindarvað,64.100202999999993,-21.770962000000001,0
90000336,BUGÐA V,Bugða / Móvað,64.098996,-21.773999,0
90000338,SELJABR,Bugða / Reiðvað,64.098217000000005,-21.776816,0
90000342,STÓRHÖ5,Stórhöfði / Breiðhöfði,64.128853000000007,-21.823920000000001,0
90000343,SUÐURFE,Suðurfell,64.099587999999997,-21.82799,0
90000344,NORÐUR4,Norðurfell / Æsufell,64.101750999999993,-21.830020999999999,0
90000345,VESTU12,Vesturberg / Norðurfell,64.103686999999994,-21.824862,0
90000346,VESTU11,Vesturberg,64.105647000000005,-21.823142000000001,0
90000347,VESTU10,Vesturberg / Suðurhólar,64.107928999999999,-21.821142999999999,0
90000348,HÖFÐAB2,Árbæjarsafn,64.118633000000003,-21.813897999999998,0
90000349,STRENG3,Strengur / Laxakvísl,64.121233000000004,-21.817246000000001,0
90000350,STRENG2,Strengur / Sílakvísl,64.121369000000001,-21.827197999999999,0
90000351,STRAUM4,Straumur / Nesti,64.123209000000003,-21.825762999999998,0
90000352,ELLIÐA2,Elliðabraut / Sandavað,64.099132999999995,-21.780391999999999,0
90000353,BÍLDSHÖ,Bíldshöfði / Vagnhöfði,64.125552999999996,-21.819095999999998,0
90000354,BÍLDSH1,Bíldshöfði / Höfðabakki,64.125640000000004,-21.813707999999998,0
90000355,HÖFÐABA,Höfðabakki / Dvergshöfði,64.127211000000003,-21.811826,0
90000356,FJALLKO,Funafold,64.136380000000003,-21.806744999999999,0
90000357,FJALLK1,Fjallkonuvegur / Hverafold,64.135579000000007,-21.801781999999999,0
90000358,FJALLK2,Fjallkonuvegur / Frostafold,64.134635000000003,-21.797646,0
90000359,FJALLK3,Fjallkonuvegur / Logafold,64.135548,-21.793113999999999,0
90000360,FJALLK4,Fjallkonuvegur / Reykjafold,64.137719000000004,-21.790887000000001,0
90000361,FJALLK5,Fjallkonuvegur / Gagnvegur,64.139240999999998,-21.789273000000001,0
90000362,GAGNVEG,Gagnvegur / Dalhús,64.139278000000004,-21.784548999999998,0
90000363,GAGNVE1,Gagnvegur / Vallarhús,64.139607999999996,-21.780282,0
90000364,GAGNVE2,Gagnvegur / Brekkuhús,64.138552000000004,-21.776655000000002,0
90000365,VÆTTAB1,Vættaborgir,64.154372,-21.784844,0
90000366,SPÖNG1,Spöngin,64.150208000000006,-21.791357000000001,0
90000367,BORGAV2,Borgavegur,64.149303000000003,-21.787534999999998,0
90000368,LANGIR4,Langirimi / Mosarimi,64.145972,-21.787891999999999,0
90000369,LANGIR5,Miðgarður,64.144486999999998,-21.791620999999999,0
90000370,LANGIR6,Langirimi / Flétturimi,64.142182000000005,-21.792563000000001,0
90000371,LANGIR7,Langirimi / Hallsvegur,64.140846999999994,-21.794042000000001,0
90000373,LOKINH3,Lokinhamrar / Vegghamrar,64.138438,-21.808477,0
90000374,HÖFÐAB1,Höfðar,64.126981999999998,-21.812224000000001,0
90000375,NORÐLI1,Norðlingabraut / Bjallavað,64.102853999999994,-21.776629,0
90000376,STRAUM3,Straumur / Nesti,64.123281000000006,-21.825963000000002,0
90000377,STRENGU,Strengur / Sílakvísl,64.121291999999997,-21.827179999999998,0
90000378,STRENG1,Strengur / Laxakvísl,64.121185999999994,-21.817062,0
90000379,HÖFÐAB3,Árbæjarsafn,64.119353000000004,-21.813471,0
90000380,NORÐUR8,Vesturberg / Suðurhólar,64.108298000000005,-21.821069999999999,0
90000381,NORÐUR7,Vesturberg,64.105378999999999,-21.823632,0
90000382,SUÐURH5,Vesturberg / Norðurfell,64.103132000000002,-21.825614000000002,0
90000383,NORÐUR6,Norðurfell / Æsufell,64.101747000000003,-21.830307000000001,0
90000384,SUÐURF1,Suðurfell,64.099575000000002,-21.828261999999999,0
90000385,SELJAB4,Seljabraut / Flúðasel,64.098344999999995,-21.828419,0
90000386,SELJAB5,Seljabraut,64.099943999999994,-21.830724,0
90000387,SELJAB6,Seljabraut / Engjasel,64.102092999999996,-21.833703,0
90000388,LOKINH8,Lokinhamrar / Gerðhamrar,64.138277,-21.816292,0
90000389,SELJAB7,Seljabraut / Seljaskógar,64.103370999999996,-21.835476,0
90000390,LOKINH7,Lokinhamrar / Dverghamrar,64.136858,-21.812682,0
90000391,NORÐLI2,Norðlingabraut / Ferjuvað,64.103829000000005,-21.771664000000001,0
90000394,KLETTA3,Klettagarðar / Kænugarðar,64.151934999999995,-21.864747000000001,0
90000395,MIKLAB9,Skeifan,64.128502999999995,-21.870422000000001,0
90000396,MIKLA10,Gerði,64.126326000000006,-21.85755,0
90000397,NORÐLIN,Norðlingabraut / Árvað,64.101416,-21.778054000000001,0
90000398,HRAUNBÆ,Hraunbær,64.119799,-21.808087,0
90000399,ROFABÆR,Rofabær / Hraunbær,64.117812000000001,-21.808415,0
90000400,ROFABÆ1,Rofabær / Hábær,64.116860000000003,-21.801618000000001,0
90000401,ROFABÆ2,Árbæjarskóli,64.116063999999994,-21.796227999999999,0
90000402,ROFABÆ3,Rofabær / Brekkubær,64.115335000000002,-21.791333999999999,0
90000403,HRAUNÁS,Hraunsás,64.113026000000005,-21.787925000000001,0
90000404,SELÁSBR,Selásbraut / Næfurás,64.111407,-21.785881,0
90000405,SELÁSB1,Selásbraut / Reykás,64.109463000000005,-21.787354000000001,0
90000406,SELÁSB2,Selásbraut / Sauðás,64.108063000000001,-21.788401,0
90000407,SELÁSB3,Selásbraut / Vallarás,64.105490000000003,-21.786624,0
90000408,SELÁSB6,Selásskóli,64.105013999999997,-21.783432000000001,0
90000409,SELÁSB7,Selásbraut / Vallarás,64.105808999999994,-21.786807,0
90000410,SELÁSB8,Selásbraut / Skógarás,64.108103,-21.788205000000001,0
90000411,SELÁSB9,Selásbraut / Reykás,64.109718999999998,-21.786949,0
90000412,SELÁS10,Selásbraut / Næfurás,64.111586000000003,-21.785536,0
90000413,BREIÐH1,Breiðhöfði / Ártún,64.123604999999998,-21.823945999999999,0
90000414,MIKLA11,Gerði,64.126723999999996,-21.857773999999999,0
90000415,MIKLAB6,Skeifan,64.128968,-21.871115,0
90000418,KORPÚL3,Korpúlfsstaðir,64.153683000000001,-21.762822,0
90000419,KLETTA1,Klettagarðar / Kænugarðar,64.152092999999994,-21.865259000000002,0
90000420,BARÐAS1,Barðastaðir,64.156749000000005,-21.750935999999999,0
90000421,BREIÐHÖ,Breiðhöfði / Ártún,64.124564000000007,-21.823575999999999,0
90000422,GRENSÁ2,Heiðargerði,64.127854999999997,-21.876909999999999,0
90000423,GRENSÁ3,Álmgerði,64.124461999999994,-21.879465,0
90000424,JAÐARSE,Jaðarsel / Jakasel,64.096286000000006,-21.827762,0
90000425,JAÐARS1,Jaðarsel / Jórusel,64.094853000000001,-21.830760999999999,0
90000426,JAÐARS2,Jaðarsel / Klyfjasel,64.092737,-21.836881999999999,0
90000427,JAÐARS3,Jaðarsel / Melsel,64.093942999999996,-21.841788000000001,0
90000428,JAÐARS4,Jaðarsel / Holtasel,64.096073000000004,-21.845217999999999,0
90000429,HÓLMASE,Hólmasel,64.096551000000005,-21.843836,0
90000431,SKÓGARS,Skógarsel / Stíflusel,64.098760999999996,-21.852779000000002,0
90000432,SKÓGAR1,Skógarsel / Strandasel,64.100544999999997,-21.857308,0
90000433,SKÓGAR2,Íþróttamiðstöð ÍR,64.102521999999993,-21.850059999999999,0
90000434,SKÓGAR7,Skógarsel / Árskógar,64.104422,-21.84403,0
90000435,GRENSÁ7,Hæðargarður,64.124771999999993,-21.878778000000001,0
90000436,JAÐAR11,Jaðarsel / Seljabraut,64.097731999999993,-21.827839999999998,0
90000437,GRENSÁ6,Heiðargerði,64.127889999999994,-21.876432000000001,0
90000438,KORPÚL2,Korpúlfsstaðavegur / Brúnastaðir,64.155023,-21.757956,0
90000439,VÍKURVE,Víkurvegur / Keldnaholt,64.139365999999995,-21.771996999999999,0
90000440,BORGAVE,Borgavegur / Víkurvegur,64.144959999999998,-21.775592,0
90000441,BAKKAS3,Kelduskóli / Korpa,64.157506999999995,-21.755284,0
90000442,BAKKAS2,Bakkastaðir / Barðastaðir,64.158046999999996,-21.750857,0
90000443,KORPÚLF,Korpúlfsstaðavegur / Brúnastaðir,64.155090999999999,-21.758423000000001,0
90000444,NORÐUR2,Fellaskóli / Nýlistasafnið,64.101670999999996,-21.822682,0
90000445,NORÐUR3,Norðurfell / Austurberg,64.101979,-21.817125999999998,0
90000446,AUSTUR1,Gerðuberg,64.104659999999996,-21.816776000000001,0
90000447,SUÐURH2,Suðurhólar / Austurberg,64.107772999999995,-21.815871000000001,0
90000448,SUÐURH3,Suðurhólar / Þrastarhólar,64.107738999999995,-21.809419999999999,0
90000449,NORÐURH,Norðurhólar / Stelkshólar,64.109273000000002,-21.804421000000001,0
90000450,NORÐUR5,Norðurhólar / Smyrilshólar,64.110243999999994,-21.809901,0
90000451,VESTURH,Vesturhólar / Hrafnhólar,64.110557999999997,-21.815390000000001,0
90000452,VESTUR8,Vesturhólar / Fýlshólar,64.111675000000005,-21.818466999999998,0
90000453,VESTUR9,Vesturhólar / Höfðabakki,64.110290000000006,-21.820872000000001,0
90000454,VÆTTABO,Vættaborgir,64.154410999999996,-21.785038,0
90000455,STRÆTÓV,Strætóvegur / Vættaborgir,64.152963999999997,-21.785333999999999,0
90000456,BORGAV1,Gullinbrú / OLÍS,64.138306,-21.806982,0
90000457,SELÁSSK,Selásskóli,64.104934999999998,-21.783863,0
90000458,MIKLABR,Klambratún,64.135751999999997,-21.916084000000001,0
90000459,MIKLAB1,Sundagarðar,64.150767000000002,-21.871359999999999,0
90000460,MIKLAB2,Hlíðar,64.133799999999994,-21.903618000000002,0
90000461,MIKLAB8,Kringlan,64.132227,-21.893581000000001,0
90000462,LOKINH4,Lokinhamrar / Sporhamrar,64.139654,-21.812038,0
90000467,BREIÐAV,Lokinhamrar / Bláhamrar,64.137054,-21.810411,0
90000468,SKÓLAV1,Skólavegur,64.148904999999999,-21.779651999999999,0
90000469,VÍKURV3,Egilshöll,64.14819,-21.772144,0
90000470,GULLEN2,Gullengi / Laufengi,64.146930999999995,-21.779582000000001,0
90000471,KORPÚL1,Korpúlfsstaðir,64.153307999999996,-21.764408,0
90000472,GULLEN3,Gullengi / Borgavegur,64.147073000000006,-21.783000000000001,0
90000473,LOKINHA,Lokinhamrar / Vegghamrar,64.138513,-21.808404,0
90000474,LOKINH1,Lokinhamrar / Sporhamrar,64.139761,-21.812023,0
90000475,LOKINH2,Lokinhamrar / Leiðhamrar,64.140624,-21.817025,0
90000476,MELAVE5,Melavegur / Tröllaborgir,64.154821,-21.791579,0
90000477,MELAVE4,Melavegur / Goðaborgir,64.154217,-21.793594,0
90000478,MELAVE3,Melavegur / Dofraborgir,64.153033,-21.797047,0
90000480,STRAND7,Gullinbrú / OLÍS,64.137622,-21.808404,0
90000481,MIKLAB3,Hlíðar,64.134129000000001,-21.903928000000001,0
90000482,MIKLAB4,Lokinhamrar / Dverghamrar,64.136911,-21.812576,0
90000483,MIKLAB5,Klambratún,64.136005999999995,-21.916077999999999,0
90000484,HAMRAVÍ,Kelduskóli / Vík,64.152593,-21.778546,0
90000485,MELAVEG,Melavegur / Goðaborgir,64.153037999999995,-21.796900999999998,0
90000486,MELAVE1,Melavegur / Hulduborgir,64.154145999999997,-21.793517000000001,0
90000487,MELAVE2,Melavegur / Jötnaborgir,64.154769000000002,-21.791419999999999,0
90000489,STRANDV,Lokinhamrar / Gerðhamrar,64.138383,-21.816256,0
90000490,STRAND2,Strandvegur / Rimaflöt,64.144481,-21.806232,0
90000491,GAGNVE5,Gagnvegur / Brekkuhús,64.138692000000006,-21.776710000000001,0
90000492,GAGNVE4,Gagnvegur / Vallarhús,64.139617999999999,-21.781186000000002,0
90000493,GAGNVE3,Gagnvegur / Dalhús,64.139360999999994,-21.784849000000001,0
90000494,FJALLK6,Fjallkonuvegur / Gagnvegur,64.139109000000005,-21.789567999999999,0
90000495,FJALLK7,Fjallkonuvegur / Reykjafold,64.137739999999994,-21.791091999999999,0
90000496,FJALLK8,Fjallkonuvegur / Jöklafold,64.135625000000005,-21.793327000000001,0
90000497,FJALLK9,Fjallkonuvegur / Frostafold,64.134851999999995,-21.798155999999999,0
90000498,FJALL10,Fjallkonuvegur / Hverafold,64.135784000000001,-21.802316999999999,0
90000499,FJALL11,Funafold,64.136534999999995,-21.807020000000001,0
90000500,BORGAV5,Borgavegur,64.149625,-21.788861000000001,0
90000501,STRÆTÓ1,Strætóvegur við Vættaborgir,64.153015,-21.785335,0
90000502,HAMRAV1,Kelduskóli / Vík,64.15272,-21.779028,0
90000503,LOKINH5,Lokinhamrar / Hesthamrar,64.139427,-21.818164,0
90000504,GULLINB,Gullinbrú,64.133314999999996,-21.813624000000001,0
90000507,LOKINH6,Lokinhamrar / Leiðhamrar,64.140539,-21.81694,0
90000508,SKÓGAR6,Skógarsel / Árskógar,64.104707000000005,-21.843823,0
90000509,SKÓGAR3,Íþróttamiðstöð ÍR,64.102635000000006,-21.850158,0
90000510,SKÓGAR4,Skógarsel / Stúfsel,64.100688000000005,-21.857382000000001,0
90000511,SKÓGAR5,Skógarsel / Stokkasel,64.098483999999999,-21.851918000000001,0
90000512,HÓLMAS1,Hólmasel,64.096777000000003,-21.843647000000001,0
90000513,JAÐARS5,Jaðarsel / Holtasel,64.095962,-21.845364,0
90000514,JAÐARS6,Jaðarsel / Látrasel,64.093635000000006,-21.841113,0
90000515,JAÐARS7,Jaðarsel / Klyfjasel,64.092905999999999,-21.836071,0
90000516,JAÐARS8,Jaðarsel / Kaldasel,64.094551999999993,-21.831356,0
90000517,JAÐARS9,Jaðarsel / Jakasel,64.09639,-21.827376999999998,0
90000518,VÍKURV2,Egilshöll,64.148161000000002,-21.772221999999999,0
90000519,BORGAV3,Víkurvegur / Borgavegur,64.145171,-21.774141,0
90000521,JAÐAR10,Jaðarsel / Seljabraut,64.097864000000001,-21.827732999999998,0
90000522,SUÐURHÓ,Hólabrekkuskóli,64.107945999999998,-21.817730000000001,0
90000523,SUÐURH4,Lokinhamrar / Hesthamrar,64.139332,-21.818393,0
90000524,AUSTURB,Gerðuberg,64.104985999999997,-21.817050999999999,0
90000525,NORÐURF,Norðurfell / Austurberg,64.101994000000005,-21.817495000000001,0
90000526,NORÐUR1,Fellaskóli / Nýlistasafnið,64.101775000000004,-21.822929999999999,0
90000527,BISKUP1,Biskupsgata,64.12567,-21.735856999999999,0
90000529,LANGIRI,Langirimi / Hallsvegur,64.140749,-21.793928000000001,0
90000530,LANGIR1,Langirimi / Flétturimi,64.142384000000007,-21.792345000000001,0
90000531,LANGIR2,Miðgarður,64.144565999999998,-21.791284000000001,0
90000532,LANGIR3,Langirimi / Lyngrimi,64.146055000000004,-21.787452999999999,0
90000533,GULLENG,Gullengi / Borgavegur,64.147037999999995,-21.783137,0
90000534,VÍKURV1,Víkurvegur / Keldnaholt,64.139227000000005,-21.772366999999999,0
90000535,GULLEN1,Gullengi / Laufengi,64.147091000000003,-21.779353,0
90000536,SKÓLAVE,Skólavegur,64.149016000000003,-21.779588,0
90000537,SELÁSB5,Selásbraut / Þverás,64.102823000000001,-21.783553000000001,0
90000540,KRÓKHÁ3,Krókháls / GR,64.125082000000006,-21.775774999999999,0
90000541,VÍNLAN1,Vínlandsleið / Húsasmiðjan,64.130432999999996,-21.763805999999999,0
90000542,ÞÚSÖLD,Þúsöld,64.129225000000005,-21.765284000000001,0
90000546,GVENDAR,Gvendargeisli / Þórðarsveigur,64.126337000000007,-21.744282999999999,0
90000547,KRISTNI,Kristnibraut / Prestastígur,64.126919000000001,-21.752396000000001,0
90000548,KRISTN1,Ingunnarskóli,64.126812000000001,-21.757563999999999,0
90000549,GVENDA2,Gvendargeisli / Sæmundarsel,64.125966000000005,-21.740397999999999,0
90000550,KRISTN2,Kristnibraut / Maríubaugur,64.127101999999994,-21.767292000000001,0
90000551,BISKUPS,Biskupsgata,64.125667000000007,-21.735565999999999,0
90000552,VÍNLAND,Vínlandsleið / Húsasmiðjan,64.130542000000005,-21.763812999999999,0
90000553,KRÓKHÁL,Krókháls / GR,64.125167000000005,-21.775974999999999,0
90000554,KRÓKHÁ1,Krókháls / Stuðlaháls,64.121662999999998,-21.791149000000001,0
90000555,KRÓKHÁ2,Krókháls / Hálsabraut,64.121600999999998,-21.795694000000001,0
90000556,GRENSÁ8,Grensásvegur / Skálagerði,64.126062000000005,-21.878181999999999,0
90000557,GRENSÁ9,Grensásvegur / Breiðagerði,64.126040000000003,-21.877780000000001,0
90000558,STÓRH12,Stórhöfði / Tengivegur,64.129084000000006,-21.820367999999998,0
90000559,STÓRH13,Stórhöfði / Tengivegur ,64.129017000000005,-21.819683000000001,0
90000600,VESTU26,Vesturlandsvegur / Hálsar,64.124237,-21.793601,0
90000601,VESTU25,Bauhaus,64.138639,-21.754285,0
90000609,HÓTEL 1,Nauthólsvegur,64.130283000000006,-21.930057000000001,0
90000627,KLEPPS2,Dalbraut,64.150638000000001,-21.874600999999998,0
90000628,KLEPPS3,Hrafnista,64.148988000000003,-21.867222000000002,0
90000629,KLEPPS4,Kleppsvegur / Hjallavegur,64.145760999999993,-21.858682999999999,0
90000630,SÆBRAUT,Sæbraut / Kirkjusandur,64.149555000000007,-21.888833000000002,0
90000631,SÆBRAU1,Sæbraut / Kirkjusandur,64.149596000000003,-21.889514999999999,0
90000632,BORGARH,Borgarholtsskóli,64.150362999999999,-21.784939000000001,0
90000633,BORGAR4,Borgarholtsskóli,64.150336999999993,-21.784783999999998,0
90000634,ELLIÐAB,Elliðabraut / Árvað,64.100352999999998,-21.778268000000001,0
90000635,MELAVE7,Melavegur / Dvergaborgir,64.152002999999993,-21.798608000000002,0
90000636,MELAVE8,Melavegur / Dvergaborgir,64.152008,-21.79878,0
90000644,VESTU23,Bauhaus,64.138648,-21.75413,0
90000645,VESTU24,Vesturlandsvegur / Viðarhöfði,64.124466999999996,-21.798732000000001,0
90000647,KORPUTO,Korputorg,64.143389999999997,-21.761766000000001,0
90000661,BORGAV4,Borgavegur / Gullengi,64.145752000000002,-21.783106,0
90000702,VESTU28,Esjurætur - Hiking Center,64.208419000000006,-21.712028,0
90000703,VALLAR4,Klébergsskóli,64.237888999999996,-21.824185,0
90000704,VALLAR5,Vallargrund / Esjugrund,64.240824000000003,-21.828047999999999,0
90000705,ESJUSK1,Esjuskáli,64.241861999999998,-21.829999000000001,0
90000707,VALLAR7,Vallargrund / Esjugrund,64.240628999999998,-21.827923999999999,0
90000708,VALLAR6,Klébergsskóli,64.237804999999994,-21.824263999999999,0
90000709,LSH / 1,LSH / Hringbraut,64.135909,-21.928974,0
90000711,ESJUSK2,Esjuskáli,64.241735000000006,-21.82977,0
90000712,HARPA2,Harpa,64.14943,-21.930277,0
90000713,HARPA,Harpa,64.149398,-21.932189,0
90000717,VESTU30,Vesturhólar / Höfðabakki,64.110748000000001,-21.819953999999999,0
90000718,VESTU31,Vesturhólar / Fýlshólar,64.111620000000002,-21.817805,0
90000719,VESTU32,Vesturhólar / Hrafnhólar,64.110622000000006,-21.815553999999999,0
90000720,NORÐU19,Norðurhólar / Smyrilshólar,64.110190000000003,-21.809422999999999,0
90000721,NORÐU20,Norðurhólar / Stelkshólar,64.109089999999995,-21.804492,0
90000722,SUÐURH6,Suðurhólar / Þrastarhólar,64.107806999999994,-21.808807000000002,0
90000723,SUÐURH7,Suðurhólar / Austurberg,64.107844999999998,-21.816040000000001,0
90000724,SELJASK,Seljabraut / Seljaskógar,64.103092000000004,-21.835325999999998,0
90000725,SELJAB8,Seljabraut / Engjasel,64.101909000000006,-21.833665,0
90000726,SELJAB9,Seljabraut,64.099637999999999,-21.830507000000001,0
90000727,SELJA10,Seljabraut / Flúðasel,64.098228000000006,-21.828427000000001,0
90000728,ROFABÆ8,Rofabær / Norðurás,64.114718999999994,-21.787037000000002,0
90000729,ROFABÆ9,Rofabær / Brautarás,64.114922000000007,-21.787623,0
90000730,REYNIVA,Reynisvatnsvegur,64.130044999999996,-21.747866999999999,0
90000731,HÁLSAB2,Hálsabraut,64.119653999999997,-21.797871000000001,0
90000732,BÆJARB8,Bæjarbraut,64.117652000000007,-21.799351999999999,0
90000733,BÆJARB9,Bæjarbraut,64.117724999999993,-21.799091000000001,0
90000734,HÁLSAB3,Hálsabraut,64.119641000000001,-21.797585999999999,0
90000735,REYNISV,Reynisvatnsvegur,64.130146999999994,-21.747973000000002,0
90000736,LOKINH9,Lokinhamrar / Bláhamrar,64.136947,-21.810359,0
90000737,VÍKURV4,Víkurvegur / Borgavegur,64.144200999999995,-21.774926000000001,0
90000740,GAGNVE6,Gagnvegur / Völundarhús,64.138160999999997,-21.773972000000001,0
90000741,GAGNVE7,Gagnvegur / Völundarhús,64.138281000000006,-21.77421,0
90000742,VÍNLAN2,Vínlandsleið / Guðríðarstígur,64.128722999999994,-21.771011999999999,0
90000743,VÍNLAN3,Vínlandsleið / Guðríðarstígur,64.128686000000002,-21.770841999999998,0
90000744,STRAUM5,Straumur / Nethylur,64.122195000000005,-21.815114000000001,0
90000745,HAMRAV2,Hamravík / Mosavegur,64.151332999999994,-21.775997,0
90000746,HAMRAV3,Hamravík / Mosavegur,64.151367,-21.775864,0
90000747,ESJUMEL,Esjumelar,64.194125999999997,-21.697398,0
90000748,ESJUME1,Esjumelar,64.194212,-21.697271,0
90000749,NOÐLING,Norðlingabraut / Helluvað,64.102703000000005,-21.766722999999999,0
90000750,NORÐLI3,Norðlingabraut / Ferjuvað,64.103900999999993,-21.771639,0
90000751,NORÐLI4,Norðlingabraut / Bjallavað,64.102902999999998,-21.776744000000001,0
90000752,NORÐLI5,Norðlingabraut / Árvað,64.101478,-21.778261000000001,0
90000753,MÍMISBR,Mímisbrunnur / Úlfarsbraut,64.134737999999999,-21.745795000000001,0
90000754,BORGAV8,Borgavegur / Gullengi,64.146046999999996,-21.783242999999999,0
90000755,BITRUHÁ,Bitruháls,64.121937000000003,-21.806509999999999,0
90000756,GRJÓTHÁ,Grjótháls / Bitruháls,64.123575000000002,-21.803080999999999,0
90000757,GRJÓTH1,Hálsabraut / Grjótháls,64.123163000000005,-21.797097000000001,0
90000758,GRJÓTH3,Hálsabraut / Grjótháls,64.123373999999998,-21.796755999999998,0
90000759,GRJÓTH2,Grjótháls / Bitruháls,64.123692000000005,-21.803101000000002,0
90000760,BITRUH1,Bitruháls,64.121949999999998,-21.806757999999999,0
90000763,LAMBHAG,Lambhagavegur / Mímisbrunnur,64.134028999999998,-21.750167000000001,0
90000764,REYNIS2,Reynisvatn,64.126632,-21.731949,0
90000765,REYNIS1,Reynisvatnsvegur / Katrínarlind,64.128952,-21.739925,0
90000766,REYNIS3,Reynisvatnsvegur / Katrínarlind,64.128798,-21.739841,0
90000767,REYNIS4,Reynisvatn,64.126568,-21.732504,0
90000768,GUFUNES,Gufunesbær,64.144192,-21.809488,0
90000769,EGILSHÖ,Egilshöll,64.145946,-21.772323,0
90000770,STRAND9,Strandvegur / Rimaflöt,64.144722,-21.805754,0
90000771,VESTU39,Vesturlandsvegur / Úlfarsá,64.1358527085922,-21.7601463181546,0
90000772,VESTU38,Vesturlandsvegur / Úlfarsá,64.135916,-21.760679,0
90000775,SÆBRAU7,Sæbraut / Frakkastígur,64.147036,-21.921625,0
90000776,SÆBRAU8,Sæbraut / Vitastígur,64.146372,-21.920335,0
90000777,MIMISBR,Mimisbrunnur / Skyggnistorg,64.136328,-21.740712,0
90000778,SKYGGNI,Skyggnisbraut,64.135914492146497,-21.735381759014501,0
90000779,MIMISB1,Mimisbrunnur / Úlfarsbraut,64.1348595193503,-21.7459323444902,0
90000780,BORGA12,Borgartún / Nóatún,64.145743026896497,-21.901810070218801,0
90000781,BORGA13,Borgartún / Nóatún,64.1458538511298,-21.902033705472,0
90000784,FLYÐRUG,Flyðrugrandi,64.146497586512893,-21.9649264770744,0
90000797,NORÐURÁ,Norðurás,64.113354,-21.784981,0
90009990,KÓPAVO4,Kópavogslækur,64.1171201570706,-21.8984467970822,0
90009991,REYKJ17,Reykjav./Kópav.,64.1138071647748,-21.8439553605848,0
90009992,REYKJ18,Reykjav./Seltjarnarn.,64.1458744880393,-21.976595109207,0
90009993,REYKJ19,Reykjavík/Mosfellsbær,64.1876534612406,-21.6855010904586,0
90009995,REYKJ21,Reykjavík/Hveragerði,64.0630650857857,-21.553075412822,0
90009996,REYKJ22,Reykjavík/Hvalfjarðarsveit,64.2688376255485,-21.8347479591702,0
90009997,REYKJ31,Reykjavík/Ölfus,64.061704938384,-21.5516235952752,0
